{
  "features": [
    {
      "id": "224 BOSTON STREET AMERICAN",
      "properties": {
        "name": "224 BOSTON STREET AMERICAN",
        "address": "224 Boston Street, Dorchester, MA, 02125",
        "phone": "617-265-1217",
        "region": "DORCHESTER",
        "mbta access": "no",
        "Lunch Detail": "",
        "Dinner Details": "Dinner: $33 for three-course menu",
        "marker-size": "small",
        "marker-symbol": "restaurant",
        "geo_accuracy": "secondary",
        "geo_longitude": "-71.0581969",
        "geo_latitude": "42.3273788"
      },
      "type": "Feature",
      "geometry": {
        "type": "Point",
        "coordinates": [
          -71.0581969,
          42.3273788
        ]
      }
    },
    {
      "id": "29 NEWBURY RESTAURANT AMERICAN",
      "properties": {
        "name": "29 NEWBURY RESTAURANT AMERICAN",
        "address": "29 Newbury Street, Boston, MA, 02116",
        "phone": "617-536-0290",
        "region": "BACK BAY",
        "mbta access": "yes",
        "Lunch Detail": "Lunch: $25 for two-course menu",
        "Dinner Details": "Dinner: $33 for three-course menu",
        "marker-size": "small",
        "marker-symbol": "restaurant",
        "geo_accuracy": "house",
        "geo_longitude": "-71.0723838461538",
        "geo_latitude": "42.3524192307692"
      },
      "type": "Feature",
      "geometry": {
        "type": "Point",
        "coordinates": [
          -71.0723838461538,
          42.3524192307692
        ]
      }
    },
    {
      "id": "5 NAPKIN BURGER AMERICAN",
      "properties": {
        "name": "5 NAPKIN BURGER AMERICAN",
        "address": "105 Huntington Avenue, Boston, MA, 02199",
        "phone": "617-375-2277",
        "region": "BACK BAY",
        "mbta access": "no",
        "Lunch Detail": "Lunch: $20 for two-course menu and a soft drink",
        "Dinner Details": "Dinner: $33 for two-course menu and a glass of wine or beer",
        "marker-size": "small",
        "marker-symbol": "restaurant",
        "geo_accuracy": "house",
        "geo_longitude": "-71.080973082813",
        "geo_latitude": "42.3461422741061"
      },
      "type": "Feature",
      "geometry": {
        "type": "Point",
        "coordinates": [
          -71.080973082813,
          42.3461422741061
        ]
      }
    },
    {
      "id": "75 CHESTNUT AMERICAN",
      "properties": {
        "name": "75 CHESTNUT AMERICAN",
        "address": "75 Chestnut Street, Boston, MA, 02108",
        "phone": "617-227-2175",
        "region": "BEACON HILL",
        "mbta access": "yes",
        "Lunch Detail": "",
        "Dinner Details": "Dinner: $33 for three-course menu",
        "marker-size": "small",
        "marker-symbol": "restaurant",
        "geo_accuracy": "house",
        "geo_longitude": "-71.070463",
        "geo_latitude": "42.356973"
      },
      "type": "Feature",
      "geometry": {
        "type": "Point",
        "coordinates": [
          -71.070463,
          42.356973
        ]
      }
    },
    {
      "id": "80 THOREAU AMERICAN",
      "properties": {
        "name": "80 THOREAU AMERICAN",
        "address": "80 Thoreau Street, Concord, MA, 01742",
        "phone": "978-318-0008",
        "region": "CONCORD",
        "mbta access": "yes",
        "Lunch Detail": "",
        "Dinner Details": "Dinner: $38 for three-course menu",
        "marker-size": "small",
        "marker-symbol": "restaurant",
        "geo_accuracy": "house",
        "geo_longitude": "-71.3577574991742",
        "geo_latitude": "42.4569063080597"
      },
      "type": "Feature",
      "geometry": {
        "type": "Point",
        "coordinates": [
          -71.3577574991742,
          42.4569063080597
        ]
      }
    },
    {
      "id": "A TAVOLA ITALIAN",
      "properties": {
        "name": "A TAVOLA ITALIAN",
        "address": "34 Church Street, Winchester, MA, 01890",
        "phone": "781-729-1040",
        "region": "WINCHESTER",
        "mbta access": "yes",
        "Lunch Detail": "",
        "Dinner Details": "Dinner: $38 for three-course menu",
        "marker-size": "small",
        "marker-symbol": "restaurant",
        "geo_accuracy": "house",
        "geo_longitude": "-71.1393694030558",
        "geo_latitude": "42.4510838147538"
      },
      "type": "Feature",
      "geometry": {
        "type": "Point",
        "coordinates": [
          -71.1393694030558,
          42.4510838147538
        ]
      }
    },
    {
      "id": "ABBY LANE AMERICAN",
      "properties": {
        "name": "ABBY LANE AMERICAN",
        "address": "255 Tremont Street, Boston, MA, 02116",
        "phone": "617-451-7800",
        "region": "THEATER DISTRICT",
        "mbta access": "yes",
        "Lunch Detail": "Lunch: $20 for two-course menu",
        "Dinner Details": "Dinner: $33 for three-course menu",
        "marker-size": "small",
        "marker-symbol": "restaurant",
        "geo_accuracy": "house",
        "geo_longitude": "-71.0653034",
        "geo_latitude": "42.3500896"
      },
      "type": "Feature",
      "geometry": {
        "type": "Point",
        "coordinates": [
          -71.0653034,
          42.3500896
        ]
      }
    },
    {
      "id": "ABBY PARK CONTEMPORARY AMERICAN",
      "properties": {
        "name": "ABBY PARK CONTEMPORARY AMERICAN",
        "address": "550 Adams St., Milton, MA, 02186",
        "phone": "617-696-8700",
        "region": "MILTON",
        "mbta access": "no",
        "Lunch Detail": "Lunch: $15 for two-course menu",
        "Dinner Details": "Dinner: $28 for three-course menu",
        "marker-size": "small",
        "marker-symbol": "restaurant",
        "geo_accuracy": "house",
        "geo_longitude": "-71.039793",
        "geo_latitude": "42.25793075"
      },
      "type": "Feature",
      "geometry": {
        "type": "Point",
        "coordinates": [
          -71.039793,
          42.25793075
        ]
      }
    },
    {
      "id": "ABE & LOUIE'S STEAKHOUSE",
      "properties": {
        "name": "ABE & LOUIE'S STEAKHOUSE",
        "address": "793 Boylston Street, Boston, MA, 02116",
        "phone": "617-536-6300",
        "region": "BACK BAY",
        "mbta access": "yes",
        "Lunch Detail": "Lunch: $25 for three-course menu",
        "Dinner Details": "",
        "marker-size": "small",
        "marker-symbol": "restaurant",
        "geo_accuracy": "house",
        "geo_longitude": "-71.0817352272727",
        "geo_latitude": "42.3490167272727"
      },
      "type": "Feature",
      "geometry": {
        "type": "Point",
        "coordinates": [
          -71.0817352272727,
          42.3490167272727
        ]
      }
    },
    {
      "id": "AMELIA'S TRATTORIA ITALIAN",
      "properties": {
        "name": "AMELIA'S TRATTORIA ITALIAN",
        "address": "111 Harvard Street, Cambridge, MA, 02139",
        "phone": "617-868-7600",
        "region": "CAMBRIDGE",
        "mbta access": "yes",
        "Lunch Detail": "",
        "Dinner Details": "Dinner: $38 for three-course menu",
        "marker-size": "small",
        "marker-symbol": "restaurant",
        "geo_accuracy": "house",
        "geo_longitude": "-71.0928970909091",
        "geo_latitude": "42.365058"
      },
      "type": "Feature",
      "geometry": {
        "type": "Point",
        "coordinates": [
          -71.0928970909091,
          42.365058
        ]
      }
    },
    {
      "id": "ANTICO FORNO ITALIAN",
      "properties": {
        "name": "ANTICO FORNO ITALIAN",
        "address": "93 Salem Street, Boston, MA, 02113",
        "phone": "617-723-6733",
        "region": "NORTH END",
        "mbta access": "yes",
        "Lunch Detail": "Lunch: $20 for three-course menu",
        "Dinner Details": "Dinner: $33 for three-course menu",
        "marker-size": "small",
        "marker-symbol": "restaurant",
        "geo_accuracy": "house",
        "geo_longitude": "-71.055164375",
        "geo_latitude": "42.365508625"
      },
      "type": "Feature",
      "geometry": {
        "type": "Point",
        "coordinates": [
          -71.055164375,
          42.365508625
        ]
      }
    },
    {
      "id": "AQUITAINE FRENCH",
      "properties": {
        "name": "AQUITAINE FRENCH",
        "address": "569 Tremont Street, Boston, MA, 02118",
        "phone": "617-424-8577",
        "region": "SOUTH END",
        "mbta access": "yes",
        "Lunch Detail": "Lunch: $20 for two-course menu",
        "Dinner Details": "Dinner: $33 for three-course menu",
        "marker-size": "small",
        "marker-symbol": "restaurant",
        "geo_accuracy": "house",
        "geo_longitude": "-71.072238",
        "geo_latitude": "42.343745"
      },
      "type": "Feature",
      "geometry": {
        "type": "Point",
        "coordinates": [
          -71.072238,
          42.343745
        ]
      }
    },
    {
      "id": "AQUITAINE CHESTNUT HILL FRENCH",
      "properties": {
        "name": "AQUITAINE CHESTNUT HILL FRENCH",
        "address": "11 Boylston Street, Chestnut Hill, MA, 02467",
        "phone": "617-734-8400",
        "region": "CHESTNUT HILL",
        "mbta access": "yes",
        "Lunch Detail": "Lunch: $20 for two-course menu",
        "Dinner Details": "Dinner: $33 for three-course menu",
        "marker-size": "small",
        "marker-symbol": "restaurant",
        "geo_accuracy": "house",
        "geo_longitude": "-71.1697418245967",
        "geo_latitude": "42.321938344731"
      },
      "type": "Feature",
      "geometry": {
        "type": "Point",
        "coordinates": [
          -71.1697418245967,
          42.321938344731
        ]
      }
    },
    {
      "id": "AQUITAINE DEDHAM FRENCH",
      "properties": {
        "name": "AQUITAINE DEDHAM FRENCH",
        "address": "950 Providence Highway, Dedham, MA, 02026",
        "phone": "781-471-5212",
        "region": "DEDHAM",
        "mbta access": "yes",
        "Lunch Detail": "Lunch: $20 for two-course menu",
        "Dinner Details": "Dinner: $33 for three-course menu",
        "marker-size": "small",
        "marker-symbol": "restaurant",
        "geo_accuracy": "trunk",
        "geo_longitude": "-71.173059",
        "geo_latitude": "42.245247"
      },
      "type": "Feature",
      "geometry": {
        "type": "Point",
        "coordinates": [
          -71.173059,
          42.245247
        ]
      }
    },
    {
      "id": "ARAGOSTA BAR & BISTRO ITALIAN   /MEDITERRANEAN",
      "properties": {
        "name": "ARAGOSTA BAR & BISTRO ITALIAN   /MEDITERRANEAN",
        "address": "3 Battery Wharf, Boston, MA, 02109",
        "phone": "617-994-9001",
        "region": "WATERFRONT",
        "mbta access": "yes",
        "Lunch Detail": "Lunch: $25 for three-course menu",
        "Dinner Details": "Dinner: $38 for three-course menu",
        "marker-size": "small",
        "marker-symbol": "restaurant",
        "geo_accuracy": "house",
        "geo_longitude": "-71.0514250654611",
        "geo_latitude": "42.366754976621"
      },
      "type": "Feature",
      "geometry": {
        "type": "Point",
        "coordinates": [
          -71.0514250654611,
          42.366754976621
        ]
      }
    },
    {
      "id": "ARIA TRATTORIA ITALIAN",
      "properties": {
        "name": "ARIA TRATTORIA ITALIAN",
        "address": "253 Hanover Street, Boston, MA, 02113",
        "phone": "617-742-1276",
        "region": "NORTH END",
        "mbta access": "yes",
        "Lunch Detail": "",
        "Dinner Details": "Dinner: $38 for three-course menu",
        "marker-size": "small",
        "marker-symbol": "restaurant",
        "geo_accuracy": "house",
        "geo_longitude": "-71.0548894285714",
        "geo_latitude": "42.363266"
      },
      "type": "Feature",
      "geometry": {
        "type": "Point",
        "coordinates": [
          -71.0548894285714,
          42.363266
        ]
      }
    },
    {
      "id": "ARTBAR AMERICAN",
      "properties": {
        "name": "ARTBAR AMERICAN",
        "address": "40 Edwin H Land Blvd, Cambridge, MA, 02142",
        "phone": "617-806-4122",
        "region": "CAMBRIDGE",
        "mbta access": "yes",
        "Lunch Detail": "Lunch: $20 for two-course menu",
        "Dinner Details": "Dinner: $33 for three-course menu",
        "marker-size": "small",
        "marker-symbol": "restaurant",
        "geo_accuracy": "house",
        "geo_longitude": "-71.075371",
        "geo_latitude": "42.36676"
      },
      "type": "Feature",
      "geometry": {
        "type": "Point",
        "coordinates": [
          -71.075371,
          42.36676
        ]
      }
    },
    {
      "id": "ARTISAN BISTRO AMERICAN",
      "properties": {
        "name": "ARTISAN BISTRO AMERICAN",
        "address": "10 Avery Street, Boston, MA, 02111",
        "phone": "617-574-7176",
        "region": "THEATER DISTRICT",
        "mbta access": "yes",
        "Lunch Detail": "Lunch: $20 for three-course menu",
        "Dinner Details": "Dinner: $38 for three-course menu",
        "marker-size": "small",
        "marker-symbol": "restaurant",
        "geo_accuracy": "",
        "geo_longitude": "-71.0633401",
        "geo_latitude": "42.3531023"
      },
      "type": "Feature",
      "geometry": {
        "type": "Point",
        "coordinates": [
          -71.0633401,
          42.3531023
        ]
      }
    },
    {
      "id": "ARTISTRY ON THE GREEN AMERICAN",
      "properties": {
        "name": "ARTISTRY ON THE GREEN AMERICAN",
        "address": "2027 Massachusetts Ave, Lexington, MA, 02421",
        "phone": "781-301-6655",
        "region": "LEXINGTON",
        "mbta access": "no",
        "Lunch Detail": "Lunch: $25 for three-course menu",
        "Dinner Details": "Dinner: $38 for three-course menu",
        "marker-size": "small",
        "marker-symbol": "restaurant",
        "geo_accuracy": "secondary",
        "geo_longitude": "-71.2663848",
        "geo_latitude": "42.4477092"
      },
      "type": "Feature",
      "geometry": {
        "type": "Point",
        "coordinates": [
          -71.2663848,
          42.4477092
        ]
      }
    },
    {
      "id": "ARTU ITALIAN",
      "properties": {
        "name": "ARTU ITALIAN",
        "address": "6 Prince Street, Boston, MA, 02113",
        "phone": "617-742-4336",
        "region": "NORTH END",
        "mbta access": "yes",
        "Lunch Detail": "Lunch: $20 for three-course menu",
        "Dinner Details": "Dinner: $38 for three-course menu",
        "marker-size": "small",
        "marker-symbol": "restaurant",
        "geo_accuracy": "house",
        "geo_longitude": "-71.0537345",
        "geo_latitude": "42.3641375"
      },
      "type": "Feature",
      "geometry": {
        "type": "Point",
        "coordinates": [
          -71.0537345,
          42.3641375
        ]
      }
    },
    {
      "id": "ATLANTIC FISH SEAFOOD",
      "properties": {
        "name": "ATLANTIC FISH SEAFOOD",
        "address": "761 Boylston Street, Boston, MA, 02116",
        "phone": "617-267-4000",
        "region": "BACK BAY",
        "mbta access": "yes",
        "Lunch Detail": "Lunch: $25 for three-course menu",
        "Dinner Details": "",
        "marker-size": "small",
        "marker-symbol": "restaurant",
        "geo_accuracy": "house",
        "geo_longitude": "-71.0816297727273",
        "geo_latitude": "42.3490472727273"
      },
      "type": "Feature",
      "geometry": {
        "type": "Point",
        "coordinates": [
          -71.0816297727273,
          42.3490472727273
        ]
      }
    },
    {
      "id": "AVENUE ONE AMERICAN",
      "properties": {
        "name": "AVENUE ONE AMERICAN",
        "address": "1 Avenue de Lafayette, Boston, MA, 02111",
        "phone": "617-422-5579",
        "region": "DOWNTOWN",
        "mbta access": "yes",
        "Lunch Detail": "Lunch: $20 for three-course menu",
        "Dinner Details": "Dinner: $38 for three-course menu",
        "marker-size": "small",
        "marker-symbol": "restaurant",
        "geo_accuracy": "house",
        "geo_longitude": "-71.0607712",
        "geo_latitude": "42.3534041"
      },
      "type": "Feature",
      "geometry": {
        "type": "Point",
        "coordinates": [
          -71.0607712,
          42.3534041
        ]
      }
    },
    {
      "id": "BACCO ITALIAN",
      "properties": {
        "name": "BACCO ITALIAN",
        "address": "107 Salem Street, Boston, MA, 02119",
        "phone": "617-624-0454",
        "region": "NORTH END",
        "mbta access": "yes",
        "Lunch Detail": "",
        "Dinner Details": "Dinner: $33 for three-course menu",
        "marker-size": "small",
        "marker-symbol": "restaurant",
        "geo_accuracy": "",
        "geo_longitude": "-71.0553589",
        "geo_latitude": "42.3641569"
      },
      "type": "Feature",
      "geometry": {
        "type": "Point",
        "coordinates": [
          -71.0553589,
          42.3641569
        ]
      }
    },
    {
      "id": "BACK BAY HARRY'S CONTEMPORARY AMERICAN",
      "properties": {
        "name": "BACK BAY HARRY'S CONTEMPORARY AMERICAN",
        "address": "142 Berkeley Street, Boston, MA, 02216",
        "phone": "617-424-6711",
        "region": "BACK BAY",
        "mbta access": "yes",
        "Lunch Detail": "Lunch: $20 for two-course menu",
        "Dinner Details": "Dinner: $38 for three-course menu",
        "marker-size": "small",
        "marker-symbol": "restaurant",
        "geo_accuracy": "",
        "geo_longitude": "-71.0719093",
        "geo_latitude": "42.3488476"
      },
      "type": "Feature",
      "geometry": {
        "type": "Point",
        "coordinates": [
          -71.0719093,
          42.3488476
        ]
      }
    },
    {
      "id": "BACK DECK BARBEQUE",
      "properties": {
        "name": "BACK DECK BARBEQUE",
        "address": "2 West Street, Boston, MA, 02111",
        "phone": "617-670-0320",
        "region": "DOWNTOWN",
        "mbta access": "yes",
        "Lunch Detail": "Lunch: $15 for two-course menu",
        "Dinner Details": "Dinner: $33 for three-course menu",
        "marker-size": "small",
        "marker-symbol": "restaurant",
        "geo_accuracy": "house",
        "geo_longitude": "-71.061897",
        "geo_latitude": "42.354372"
      },
      "type": "Feature",
      "geometry": {
        "type": "Point",
        "coordinates": [
          -71.061897,
          42.354372
        ]
      }
    },
    {
      "id": "BAMBARA AMERICAN",
      "properties": {
        "name": "BAMBARA AMERICAN",
        "address": "25 Edwin Land Boulevard, Cambridge, MA, 02141",
        "phone": "617-868-4444",
        "region": "CAMBRIDGE",
        "mbta access": "yes",
        "Lunch Detail": "Lunch: $15 for three-course menu",
        "Dinner Details": "Dinner: $38 for three-course menu",
        "marker-size": "small",
        "marker-symbol": "restaurant",
        "geo_accuracy": "",
        "geo_longitude": "-71.0749603",
        "geo_latitude": "42.3679832"
      },
      "type": "Feature",
      "geometry": {
        "type": "Point",
        "coordinates": [
          -71.0749603,
          42.3679832
        ]
      }
    },
    {
      "id": "BEACON HILL BISTRO FRENCH",
      "properties": {
        "name": "BEACON HILL BISTRO FRENCH",
        "address": "25 Charles Street, Boston, MA, 02114",
        "phone": "617-723-7575",
        "region": "BEACON HILL",
        "mbta access": "yes",
        "Lunch Detail": "Lunch: $25 for three-course menu",
        "Dinner Details": "Dinner: $38 for three-course menu",
        "marker-size": "small",
        "marker-symbol": "restaurant",
        "geo_accuracy": "house",
        "geo_longitude": "-71.0696570301537",
        "geo_latitude": "42.3569297943735"
      },
      "type": "Feature",
      "geometry": {
        "type": "Point",
        "coordinates": [
          -71.0696570301537,
          42.3569297943735
        ]
      }
    },
    {
      "id": "BEAT HOTEL AMERICAN",
      "properties": {
        "name": "BEAT HOTEL AMERICAN",
        "address": "13 Brattle Street, Cambridge, MA, 02139",
        "phone": "617-499-0001",
        "region": "CAMBRIDGE",
        "mbta access": "no",
        "Lunch Detail": "Lunch: $20 for two-course menu",
        "Dinner Details": "Dinner: $38 for three-course menu",
        "marker-size": "small",
        "marker-symbol": "restaurant",
        "geo_accuracy": "",
        "geo_longitude": "-71.1201212",
        "geo_latitude": "42.3733405"
      },
      "type": "Feature",
      "geometry": {
        "type": "Point",
        "coordinates": [
          -71.1201212,
          42.3733405
        ]
      }
    },
    {
      "id": "THE BEEHIVE AMERICAN",
      "properties": {
        "name": "THE BEEHIVE AMERICAN",
        "address": "541 Tremont Street, Boston, MA, 02116",
        "phone": "617-423-0069",
        "region": "SOUTH END",
        "mbta access": "yes",
        "Lunch Detail": "Lunch: $20 for two-course brunch menu",
        "Dinner Details": "Dinner: $38 for three-course menu",
        "marker-size": "small",
        "marker-symbol": "restaurant",
        "geo_accuracy": "house",
        "geo_longitude": "-71.070826",
        "geo_latitude": "42.344493"
      },
      "type": "Feature",
      "geometry": {
        "type": "Point",
        "coordinates": [
          -71.070826,
          42.344493
        ]
      }
    },
    {
      "id": "BERGAMOT AMERICAN",
      "properties": {
        "name": "BERGAMOT AMERICAN",
        "address": "118 Beacon Street, Somerville, MA, 02143",
        "phone": "617-576-7700",
        "region": "SOMERVILLE",
        "mbta access": "yes",
        "Lunch Detail": "",
        "Dinner Details": "Dinner: $38 for three-course menu",
        "marker-size": "small",
        "marker-symbol": "restaurant",
        "geo_accuracy": "house",
        "geo_longitude": "-71.105966",
        "geo_latitude": "42.37782"
      },
      "type": "Feature",
      "geometry": {
        "type": "Point",
        "coordinates": [
          -71.105966,
          42.37782
        ]
      }
    },
    {
      "id": "BIN 26 ENOTECA ITALIAN",
      "properties": {
        "name": "BIN 26 ENOTECA ITALIAN",
        "address": "26 Charles Street, Boston, MA, 02116",
        "phone": "617-723-5939",
        "region": "BEACON HILL",
        "mbta access": "yes",
        "Lunch Detail": "Lunch: $20 for two-course menu; $25 for three-course menu",
        "Dinner Details": "Dinner: $33 for two-course menu; $38 for three-course menu",
        "marker-size": "small",
        "marker-symbol": "restaurant",
        "geo_accuracy": "house",
        "geo_longitude": "-71.069859997648",
        "geo_latitude": "42.356860245884"
      },
      "type": "Feature",
      "geometry": {
        "type": "Point",
        "coordinates": [
          -71.069859997648,
          42.356860245884
        ]
      }
    },
    {
      "id": "BISTRO 5 ITALIAN",
      "properties": {
        "name": "BISTRO 5 ITALIAN",
        "address": "5 Playstead Road, Medford, MA, 02155",
        "phone": "781-395-7464",
        "region": "MEDFORD",
        "mbta access": "yes",
        "Lunch Detail": "",
        "Dinner Details": "Dinner: $38 for three course menu",
        "marker-size": "small",
        "marker-symbol": "restaurant",
        "geo_accuracy": "house",
        "geo_longitude": "-71.1325473345436",
        "geo_latitude": "42.4214616909788"
      },
      "type": "Feature",
      "geometry": {
        "type": "Point",
        "coordinates": [
          -71.1325473345436,
          42.4214616909788
        ]
      }
    },
    {
      "id": "BISTRO DU MIDI FRENCH",
      "properties": {
        "name": "BISTRO DU MIDI FRENCH",
        "address": "272 Boylston Street, Boston, MA, 02116",
        "phone": "617-426-7878",
        "region": "BACK BAY",
        "mbta access": "yes",
        "Lunch Detail": "",
        "Dinner Details": "Dinner: $38 for three-course menu",
        "marker-size": "small",
        "marker-symbol": "restaurant",
        "geo_accuracy": "house",
        "geo_longitude": "-71.069742125",
        "geo_latitude": "42.35196275"
      },
      "type": "Feature",
      "geometry": {
        "type": "Point",
        "coordinates": [
          -71.069742125,
          42.35196275
        ]
      }
    },
    {
      "id": "BLUE GINGER ASIAN",
      "properties": {
        "name": "BLUE GINGER ASIAN",
        "address": "583 Washington Street, Wellesley, MA, 02482",
        "phone": "781-283-5790",
        "region": "WELLESLEY",
        "mbta access": "yes",
        "Lunch Detail": "Lunch: $25 for three-course menu; $20 for two-course menu",
        "Dinner Details": "Dinner: $38 for three-course menu; $45 per person plus; $20 with wine pairing for four-course tasting menu available to groups of 10 or more",
        "marker-size": "small",
        "marker-symbol": "restaurant",
        "geo_accuracy": "house",
        "geo_longitude": "-71.2934233547655",
        "geo_latitude": "42.2953680313985"
      },
      "type": "Feature",
      "geometry": {
        "type": "Point",
        "coordinates": [
          -71.2934233547655,
          42.2953680313985
        ]
      }
    },
    {
      "id": "BOSTON CHOPS STEAKHOUSE",
      "properties": {
        "name": "BOSTON CHOPS STEAKHOUSE",
        "address": "1375 Washington St., Boston, MA, 02118",
        "phone": "617-227-5011",
        "region": "SOUTH END",
        "mbta access": "no",
        "Lunch Detail": "",
        "Dinner Details": "Dinner: $38 for three-course menu",
        "marker-size": "small",
        "marker-symbol": "restaurant",
        "geo_accuracy": "house",
        "geo_longitude": "-71.069569",
        "geo_latitude": "42.341471"
      },
      "type": "Feature",
      "geometry": {
        "type": "Point",
        "coordinates": [
          -71.069569,
          42.341471
        ]
      }
    },
    {
      "id": "BRASSERIE JO FRENCH",
      "properties": {
        "name": "BRASSERIE JO FRENCH",
        "address": "120 Huntington Avenue, Boston, MA, 02116",
        "phone": "617-425-3240",
        "region": "BACK BAY",
        "mbta access": "yes",
        "Lunch Detail": "Lunch: $20 for three-course menu",
        "Dinner Details": "Dinner: $38 for three-course menu",
        "marker-size": "small",
        "marker-symbol": "restaurant",
        "geo_accuracy": "restaurant",
        "geo_longitude": "-71.0807189",
        "geo_latitude": "42.3458885"
      },
      "type": "Feature",
      "geometry": {
        "type": "Point",
        "coordinates": [
          -71.0807189,
          42.3458885
        ]
      }
    },
    {
      "id": "BRONWYN GERMAN",
      "properties": {
        "name": "BRONWYN GERMAN",
        "address": "255 Washington Street, Somerville, MA, 02143",
        "phone": "617-776-9900",
        "region": "SOMERVILLE",
        "mbta access": "no",
        "Lunch Detail": "",
        "Dinner Details": "Dinner: $33 for three-course menu",
        "marker-size": "small",
        "marker-symbol": "restaurant",
        "geo_accuracy": "secondary",
        "geo_longitude": "-71.0877384",
        "geo_latitude": "42.380934"
      },
      "type": "Feature",
      "geometry": {
        "type": "Point",
        "coordinates": [
          -71.0877384,
          42.380934
        ]
      }
    },
    {
      "id": "THE CAFE AMERICAN",
      "properties": {
        "name": "THE CAFE AMERICAN",
        "address": "15 Arlington St, Boston, MA, 02116",
        "phone": "617-598-5255",
        "region": "BACK BAY",
        "mbta access": "yes",
        "Lunch Detail": "Lunch: $25 for two-course menu",
        "Dinner Details": "Dinner: $38 for three-course menu",
        "marker-size": "small",
        "marker-symbol": "restaurant",
        "geo_accuracy": "house",
        "geo_longitude": "-71.071124",
        "geo_latitude": "42.352528"
      },
      "type": "Feature",
      "geometry": {
        "type": "Point",
        "coordinates": [
          -71.071124,
          42.352528
        ]
      }
    },
    {
      "id": "CANTINA ITALIANA ITALIAN",
      "properties": {
        "name": "CANTINA ITALIANA ITALIAN",
        "address": "346 Hanover Street, Boston, MA, 02113",
        "phone": "617-723-4577",
        "region": "NORTH END",
        "mbta access": "yes",
        "Lunch Detail": "Lunch: $15 for one-course menu; $20 for two-course menu; $25 for three-course menu",
        "Dinner Details": "Dinner: $28 for one-course menu; $33 for two-course menu; $38 for three-course menu",
        "marker-size": "small",
        "marker-symbol": "restaurant",
        "geo_accuracy": "house",
        "geo_longitude": "-71.0533945",
        "geo_latitude": "42.3649975"
      },
      "type": "Feature",
      "geometry": {
        "type": "Point",
        "coordinates": [
          -71.0533945,
          42.3649975
        ]
      }
    },
    {
      "id": "THE CAPITAL GRILLE STEAKHOUSE",
      "properties": {
        "name": "THE CAPITAL GRILLE STEAKHOUSE",
        "address": "900 Boylston Street, Boston, MA, 02115",
        "phone": "617-262-8900",
        "region": "BACK BAY",
        "mbta access": "yes",
        "Lunch Detail": "Lunch: $25 for three-course menu",
        "Dinner Details": "Dinner: $38 for three-course menu",
        "marker-size": "small",
        "marker-symbol": "restaurant",
        "geo_accuracy": "trunk",
        "geo_longitude": "-71.091336",
        "geo_latitude": "42.3465198"
      },
      "type": "Feature",
      "geometry": {
        "type": "Point",
        "coordinates": [
          -71.091336,
          42.3465198
        ]
      }
    },
    {
      "id": "THE CAPITAL GRILLE BURLINGTON STEAKHOUSE",
      "properties": {
        "name": "THE CAPITAL GRILLE BURLINGTON STEAKHOUSE",
        "address": "10 Wayside Road, Burlington, MA, 01803",
        "phone": "781-505-4130",
        "region": "BURLINGTON",
        "mbta access": "no",
        "Lunch Detail": "Lunch: $20 for three-course menu",
        "Dinner Details": "Dinner: $38 for three-course menu",
        "marker-size": "small",
        "marker-symbol": "restaurant",
        "geo_accuracy": "restaurant",
        "geo_longitude": "-71.1909703638025",
        "geo_latitude": "42.4857783269482"
      },
      "type": "Feature",
      "geometry": {
        "type": "Point",
        "coordinates": [
          -71.1909703638025,
          42.4857783269482
        ]
      }
    },
    {
      "id": "CHOPPS AMERICAN BAR & GRILL AMERICAN",
      "properties": {
        "name": "CHOPPS AMERICAN BAR & GRILL AMERICAN",
        "address": "1 Burlington Mall Road, Burlington, MA, 01803",
        "phone": "781-221-6643",
        "region": "GREATER BOSTON",
        "mbta access": "no",
        "Lunch Detail": "Lunch: $20 for two-course menu",
        "Dinner Details": "Dinner: $33 for three-course menu",
        "marker-size": "small",
        "marker-symbol": "restaurant",
        "geo_accuracy": "house",
        "geo_longitude": "-71.198777",
        "geo_latitude": "42.489987"
      },
      "type": "Feature",
      "geometry": {
        "type": "Point",
        "coordinates": [
          -71.198777,
          42.489987
        ]
      }
    },
    {
      "id": "CINQUECENTO ITALIAN",
      "properties": {
        "name": "CINQUECENTO ITALIAN",
        "address": "500 Harrison Avenue, Boston, MA, 02118",
        "phone": "617-338-9500",
        "region": "SOUTH END",
        "mbta access": "yes",
        "Lunch Detail": "",
        "Dinner Details": "Dinner: $33 for three-course menu",
        "marker-size": "small",
        "marker-symbol": "restaurant",
        "geo_accuracy": "house",
        "geo_longitude": "-71.066172",
        "geo_latitude": "42.34192"
      },
      "type": "Feature",
      "geometry": {
        "type": "Point",
        "coordinates": [
          -71.066172,
          42.34192
        ]
      }
    },
    {
      "id": "CITY TABLE AMERICAN",
      "properties": {
        "name": "CITY TABLE AMERICAN",
        "address": "65 Exeter Street, Boston, MA, 02116",
        "phone": "617-933-4800",
        "region": "BACK BAY",
        "mbta access": "yes",
        "Lunch Detail": "",
        "Dinner Details": "Dinner: $33 for three-course menu",
        "marker-size": "small",
        "marker-symbol": "restaurant",
        "geo_accuracy": "secondary",
        "geo_longitude": "-71.0798846",
        "geo_latitude": "42.3503105"
      },
      "type": "Feature",
      "geometry": {
        "type": "Point",
        "coordinates": [
          -71.0798846,
          42.3503105
        ]
      }
    },
    {
      "id": "CLINK. AMERICAN",
      "properties": {
        "name": "CLINK. AMERICAN",
        "address": "215 Charles Street, Boston, MA, 02114",
        "phone": "617-224-4004",
        "region": "BEACON HILL",
        "mbta access": "yes",
        "Lunch Detail": "Lunch: $20 for three-course menu",
        "Dinner Details": "Dinner: $38 for three-course menu",
        "marker-size": "small",
        "marker-symbol": "restaurant",
        "geo_accuracy": "hotel",
        "geo_longitude": "-71.0701587813972",
        "geo_latitude": "42.36206395"
      },
      "type": "Feature",
      "geometry": {
        "type": "Point",
        "coordinates": [
          -71.0701587813972,
          42.36206395
        ]
      }
    },
    {
      "id": "CLUB CAFE AMERICAN",
      "properties": {
        "name": "CLUB CAFE AMERICAN",
        "address": "209 Columbus Ave, Boston, MA, 02116",
        "phone": "617-536-0966",
        "region": "SOUTH END",
        "mbta access": "yes",
        "Lunch Detail": "",
        "Dinner Details": "Dinner: $28 for three-course menu",
        "marker-size": "small",
        "marker-symbol": "restaurant",
        "geo_accuracy": "house",
        "geo_longitude": "-71.0734745945946",
        "geo_latitude": "42.3474275945946"
      },
      "type": "Feature",
      "geometry": {
        "type": "Point",
        "coordinates": [
          -71.0734745945946,
          42.3474275945946
        ]
      }
    },
    {
      "id": "THE COURTYARD RESTAURANT AMERICAN",
      "properties": {
        "name": "THE COURTYARD RESTAURANT AMERICAN",
        "address": "700 Boylston Street, Boston, MA, 02116",
        "phone": "617-859-2251",
        "region": "BACK BAY",
        "mbta access": "yes",
        "Lunch Detail": "Lunch: $25 for three-course menu",
        "Dinner Details": "",
        "marker-size": "small",
        "marker-symbol": "restaurant",
        "geo_accuracy": "house",
        "geo_longitude": "-71.079632",
        "geo_latitude": "42.349391"
      },
      "type": "Feature",
      "geometry": {
        "type": "Point",
        "coordinates": [
          -71.079632,
          42.349391
        ]
      }
    },
    {
      "id": "DA VINCI ITALIAN",
      "properties": {
        "name": "DA VINCI ITALIAN",
        "address": "162 Columbus Avenue, Boston, MA, 02116",
        "phone": "617-350-0007",
        "region": "BACK BAY",
        "mbta access": "yes",
        "Lunch Detail": "",
        "Dinner Details": "Dinner: $33 for three-course menu",
        "marker-size": "small",
        "marker-symbol": "restaurant",
        "geo_accuracy": "house",
        "geo_longitude": "-71.0778445603687",
        "geo_latitude": "42.3432195654199"
      },
      "type": "Feature",
      "geometry": {
        "type": "Point",
        "coordinates": [
          -71.0778445603687,
          42.3432195654199
        ]
      }
    },
    {
      "id": "DALYA'S RESTAURANT AMERICAN",
      "properties": {
        "name": "DALYA'S RESTAURANT AMERICAN",
        "address": "20 North Road, Bedford, MA, 01730",
        "phone": "781-275-0700",
        "region": "BEDFORD",
        "mbta access": "no",
        "Lunch Detail": "Lunch: $20 for three-course menu",
        "Dinner Details": "Dinner: $38 for three-course menu",
        "marker-size": "small",
        "marker-symbol": "restaurant",
        "geo_accuracy": "house",
        "geo_longitude": "-71.2863045014745",
        "geo_latitude": "42.5143491737936"
      },
      "type": "Feature",
      "geometry": {
        "type": "Point",
        "coordinates": [
          -71.2863045014745,
          42.5143491737936
        ]
      }
    },
    {
      "id": "DAVIO'S ITALIAN STEAKHOUSE",
      "properties": {
        "name": "DAVIO'S ITALIAN STEAKHOUSE",
        "address": "75 Arlington Street, Boston, MA, 02116",
        "phone": "617-357-4810",
        "region": "BACK BAY",
        "mbta access": "yes",
        "Lunch Detail": "Lunch: $25 for three-course menu",
        "Dinner Details": "Dinner: $38 for three-course menu",
        "marker-size": "small",
        "marker-symbol": "restaurant",
        "geo_accuracy": "house",
        "geo_longitude": "-71.0703816",
        "geo_latitude": "42.3505663"
      },
      "type": "Feature",
      "geometry": {
        "type": "Point",
        "coordinates": [
          -71.0703816,
          42.3505663
        ]
      }
    },
    {
      "id": "DAVIO'S CUCINA STEAKHOUSE",
      "properties": {
        "name": "DAVIO'S CUCINA STEAKHOUSE",
        "address": "55 Boylston Street, Chestnut Hill, MA, 02467",
        "phone": "617-738-4810",
        "region": "CHESTNUT HILL",
        "mbta access": "no",
        "Lunch Detail": "Lunch: $25 for three-course menu",
        "Dinner Details": "Dinner: $38 for three-course menu",
        "marker-size": "small",
        "marker-symbol": "restaurant",
        "geo_accuracy": "house",
        "geo_longitude": "-71.1708404436684",
        "geo_latitude": "42.3216624629152"
      },
      "type": "Feature",
      "geometry": {
        "type": "Point",
        "coordinates": [
          -71.1708404436684,
          42.3216624629152
        ]
      }
    },
    {
      "id": "DAVIO'S LYNNFIELD STEAKHOUSE",
      "properties": {
        "name": "DAVIO'S LYNNFIELD STEAKHOUSE",
        "address": "427 Walnut Street, Lynnfield, MA, 01940",
        "phone": "781-944-4810",
        "region": "LYNNFIELD",
        "mbta access": "no",
        "Lunch Detail": "Lunch: $25 for three-course menu",
        "Dinner Details": "Dinner: $38 for three-course menu",
        "marker-size": "small",
        "marker-symbol": "restaurant",
        "geo_accuracy": "house",
        "geo_longitude": "-71.0293248789582",
        "geo_latitude": "42.5148851265339"
      },
      "type": "Feature",
      "geometry": {
        "type": "Point",
        "coordinates": [
          -71.0293248789582,
          42.5148851265339
        ]
      }
    },
    {
      "id": "DEL FRISCO'S STEAKHOUSE",
      "properties": {
        "name": "DEL FRISCO'S STEAKHOUSE",
        "address": "250 Northern Avenue, Boston, MA, 02210",
        "phone": "617-951-1368",
        "region": "WATERFRONT",
        "mbta access": "yes",
        "Lunch Detail": "",
        "Dinner Details": "Lunch: $25 for three-course menu",
        "marker-size": "small",
        "marker-symbol": "restaurant",
        "geo_accuracy": "house",
        "geo_longitude": "-71.0390571666667",
        "geo_latitude": "42.348981"
      },
      "type": "Feature",
      "geometry": {
        "type": "Point",
        "coordinates": [
          -71.0390571666667,
          42.348981
        ]
      }
    },
    {
      "id": "DURGIN PARK AMERICAN",
      "properties": {
        "name": "DURGIN PARK AMERICAN",
        "address": "340 Faneuil Hall Marker Place, Boston, MA, 02109",
        "phone": "617-227-2038",
        "region": "FANEUIL HALL",
        "mbta access": "yes",
        "Lunch Detail": "Lunch: $15 for two course menu;   $20 for three course menu",
        "Dinner Details": "Dinner: $33 for three-course menu",
        "marker-size": "small",
        "marker-symbol": "restaurant",
        "geo_accuracy": "retail",
        "geo_longitude": "-71.0546435137174",
        "geo_latitude": "42.3600563"
      },
      "type": "Feature",
      "geometry": {
        "type": "Point",
        "coordinates": [
          -71.0546435137174,
          42.3600563
        ]
      }
    },
    {
      "id": "EASTERN STANDARD FRENCH",
      "properties": {
        "name": "EASTERN STANDARD FRENCH",
        "address": "528 Commonwealth Avenue, Boston, MA, 02215",
        "phone": "617-532-9100",
        "region": "FENWAY/KENMORE",
        "mbta access": "yes",
        "Lunch Detail": "Lunch: $25 for three-course menu",
        "Dinner Details": "",
        "marker-size": "small",
        "marker-symbol": "restaurant",
        "geo_accuracy": "house",
        "geo_longitude": "-71.0960024882762",
        "geo_latitude": "42.3486889579909"
      },
      "type": "Feature",
      "geometry": {
        "type": "Point",
        "coordinates": [
          -71.0960024882762,
          42.3486889579909
        ]
      }
    },
    {
      "id": "THE ELEPHANT WALK BOSTON FRENCH  (FUSION / ECLECTIC)",
      "properties": {
        "name": "THE ELEPHANT WALK BOSTON FRENCH  (FUSION / ECLECTIC)",
        "address": "900 Beacon Street, Boston, MA, 02215",
        "phone": "617-247-1500",
        "region": "BACK BAY",
        "mbta access": "yes",
        "Lunch Detail": "Lunch: $15 for two-course menu",
        "Dinner Details": "Dinner: $33 for three-course menu;        $38 for four-course menu",
        "marker-size": "small",
        "marker-symbol": "restaurant",
        "geo_accuracy": "restaurant",
        "geo_longitude": "-71.1056946",
        "geo_latitude": "42.3466971"
      },
      "type": "Feature",
      "geometry": {
        "type": "Point",
        "coordinates": [
          -71.1056946,
          42.3466971
        ]
      }
    },
    {
      "id": "THE ELEPHANT WALK CAMBRIDGE FRENCH",
      "properties": {
        "name": "THE ELEPHANT WALK CAMBRIDGE FRENCH",
        "address": "2067 Massachusetts Avenue, Cambridge, MA, 02140",
        "phone": "617-492-6900",
        "region": "CAMBRIDGE",
        "mbta access": "yes",
        "Lunch Detail": "Lunch: $15 for two-course menu",
        "Dinner Details": "Dinner: $33 for three-course menu;            $38 for four-course menu",
        "marker-size": "small",
        "marker-symbol": "restaurant",
        "geo_accuracy": "house",
        "geo_longitude": "-71.122369",
        "geo_latitude": "42.391013"
      },
      "type": "Feature",
      "geometry": {
        "type": "Point",
        "coordinates": [
          -71.122369,
          42.391013
        ]
      }
    },
    {
      "id": "EMPIRE ASIAN",
      "properties": {
        "name": "EMPIRE ASIAN",
        "address": "55 Northern Avenue, Boston, MA, 02110",
        "phone": "617-295-0001",
        "region": "WATERFRONT",
        "mbta access": "yes",
        "Lunch Detail": "",
        "Dinner Details": "Dinner: $38 for three-course menu",
        "marker-size": "small",
        "marker-symbol": "restaurant",
        "geo_accuracy": "footway",
        "geo_longitude": "-71.050393",
        "geo_latitude": "42.3549705"
      },
      "type": "Feature",
      "geometry": {
        "type": "Point",
        "coordinates": [
          -71.050393,
          42.3549705
        ]
      }
    },
    {
      "id": "ERBALUCE ITALIAN",
      "properties": {
        "name": "ERBALUCE ITALIAN",
        "address": "69 Church Street, Boston, MA, 02116",
        "phone": "617-426-6969",
        "region": "THEATER DISTRICT",
        "mbta access": "yes",
        "Lunch Detail": "",
        "Dinner Details": "Dinner: $38 for three-course menu",
        "marker-size": "small",
        "marker-symbol": "restaurant",
        "geo_accuracy": "residential",
        "geo_longitude": "-71.068205",
        "geo_latitude": "42.3490875"
      },
      "type": "Feature",
      "geometry": {
        "type": "Point",
        "coordinates": [
          -71.068205,
          42.3490875
        ]
      }
    },
    {
      "id": "ESTRAGON SPANISH (TAPAS / SMALL PLATES)",
      "properties": {
        "name": "ESTRAGON SPANISH (TAPAS / SMALL PLATES)",
        "address": "700 Harrison Avenue, Boston, MA, 02118",
        "phone": "617-266-0443",
        "region": "SOUTH END",
        "mbta access": "yes",
        "Lunch Detail": "",
        "Dinner Details": "Dinner: $33 for three-course menu",
        "marker-size": "small",
        "marker-symbol": "restaurant",
        "geo_accuracy": "secondary",
        "geo_longitude": "-71.0640193",
        "geo_latitude": "42.3444913"
      },
      "type": "Feature",
      "geometry": {
        "type": "Point",
        "coordinates": [
          -71.0640193,
          42.3444913
        ]
      }
    },
    {
      "id": "EVOO AMERICAN",
      "properties": {
        "name": "EVOO AMERICAN",
        "address": "350 Third Street, Cambridge, MA, 02142",
        "phone": "617-661-3866",
        "region": "CAMBRIDGE",
        "mbta access": "yes",
        "Lunch Detail": "Lunch: $20 for two-course menu",
        "Dinner Details": "Dinner: $38 for three-course menu",
        "marker-size": "small",
        "marker-symbol": "restaurant",
        "geo_accuracy": "house",
        "geo_longitude": "-71.083459",
        "geo_latitude": "42.363703"
      },
      "type": "Feature",
      "geometry": {
        "type": "Point",
        "coordinates": [
          -71.083459,
          42.363703
        ]
      }
    },
    {
      "id": "FLEMING'S PRIME STEAKHOUSE & WINE BAR STEAKHOUSE",
      "properties": {
        "name": "FLEMING'S PRIME STEAKHOUSE & WINE BAR STEAKHOUSE",
        "address": "217 Stuart Street, Boston, MA, 02116",
        "phone": "617-292-0808",
        "region": "BACK BAY",
        "mbta access": "yes",
        "Lunch Detail": "",
        "Dinner Details": "Dinner: $38 for three-course menu",
        "marker-size": "small",
        "marker-symbol": "restaurant",
        "geo_accuracy": "house",
        "geo_longitude": "-71.068811",
        "geo_latitude": "42.3503639268293"
      },
      "type": "Feature",
      "geometry": {
        "type": "Point",
        "coordinates": [
          -71.068811,
          42.3503639268293
        ]
      }
    },
    {
      "id": "FLORA RESTAURANT AMERICAN",
      "properties": {
        "name": "FLORA RESTAURANT AMERICAN",
        "address": "190 Massachusetts Avenue, Arlington, MA, 02474",
        "phone": "781-641-1664",
        "region": "ARLINGTON",
        "mbta access": "no",
        "Lunch Detail": "",
        "Dinner Details": "Dinner: $38 for three-course menu",
        "marker-size": "small",
        "marker-symbol": "restaurant",
        "geo_accuracy": "bank",
        "geo_longitude": "-71.141967",
        "geo_latitude": "42.4052664"
      },
      "type": "Feature",
      "geometry": {
        "type": "Point",
        "coordinates": [
          -71.141967,
          42.4052664
        ]
      }
    },
    {
      "id": "FOGO DE CHAO BRAZILIAN STEAKHOUSE",
      "properties": {
        "name": "FOGO DE CHAO BRAZILIAN STEAKHOUSE",
        "address": "200 Dartmouth Street, Boston, MA, 02116",
        "phone": "617-585-6300",
        "region": "BACK BAY",
        "mbta access": "yes",
        "Lunch Detail": "",
        "Dinner Details": "Dinner: $38 for three-course menu",
        "marker-size": "small",
        "marker-symbol": "restaurant",
        "geo_accuracy": "house",
        "geo_longitude": "-71.076979",
        "geo_latitude": "42.349136"
      },
      "type": "Feature",
      "geometry": {
        "type": "Point",
        "coordinates": [
          -71.076979,
          42.349136
        ]
      }
    },
    {
      "id": "GASLIGHT BRASSERIE DU COIN FRENCH",
      "properties": {
        "name": "GASLIGHT BRASSERIE DU COIN FRENCH",
        "address": "560 Harrison Avenue, Boston, MA, 02118",
        "phone": "617-422-0224",
        "region": "SOUTH END",
        "mbta access": "yes",
        "Lunch Detail": "",
        "Dinner Details": "Dinner: $33 for three-course menu",
        "marker-size": "small",
        "marker-symbol": "restaurant",
        "geo_accuracy": "house",
        "geo_longitude": "-71.067711",
        "geo_latitude": "42.3409852272727"
      },
      "type": "Feature",
      "geometry": {
        "type": "Point",
        "coordinates": [
          -71.067711,
          42.3409852272727
        ]
      }
    },
    {
      "id": "GEM ITALIAN",
      "properties": {
        "name": "GEM ITALIAN",
        "address": "42 Province Street, Boston, MA, 02108",
        "phone": "617-482-1213",
        "region": "DOWNTOWN",
        "mbta access": "yes",
        "Lunch Detail": "",
        "Dinner Details": "Dinner: $28 for three-course menu",
        "marker-size": "small",
        "marker-symbol": "restaurant",
        "geo_accuracy": "house",
        "geo_longitude": "-71.0600072340258",
        "geo_latitude": "42.3568142074678"
      },
      "type": "Feature",
      "geometry": {
        "type": "Point",
        "coordinates": [
          -71.0600072340258,
          42.3568142074678
        ]
      }
    },
    {
      "id": "GOLDEN TEMPLE ASIAN",
      "properties": {
        "name": "GOLDEN TEMPLE ASIAN",
        "address": "1651 Beacon Street, Brookline, MA, 02445",
        "phone": "617-277-9722",
        "region": "BROOKLINE",
        "mbta access": "yes",
        "Lunch Detail": "",
        "Dinner Details": "Dinner: $28 for three-course menu",
        "marker-size": "small",
        "marker-symbol": "restaurant",
        "geo_accuracy": "primary",
        "geo_longitude": "-71.143632",
        "geo_latitude": "42.337304"
      },
      "type": "Feature",
      "geometry": {
        "type": "Point",
        "coordinates": [
          -71.143632,
          42.337304
        ]
      }
    },
    {
      "id": "GRAFTON STREET IRISH",
      "properties": {
        "name": "GRAFTON STREET IRISH",
        "address": "1230 Massachusetts Avenue, Cambridge, MA, 02138",
        "phone": "617-497-0400",
        "region": "CAMBRIDGE",
        "mbta access": "yes",
        "Lunch Detail": "",
        "Dinner Details": "Dinner: $28 for two-course menu",
        "marker-size": "small",
        "marker-symbol": "restaurant",
        "geo_accuracy": "house",
        "geo_longitude": "-71.1161923571429",
        "geo_latitude": "42.3725376428571"
      },
      "type": "Feature",
      "geometry": {
        "type": "Point",
        "coordinates": [
          -71.1161923571429,
          42.3725376428571
        ]
      }
    },
    {
      "id": "GRAND CAFE AMERICAN",
      "properties": {
        "name": "GRAND CAFE AMERICAN",
        "address": "1 Cathedral Avenue, Rockport, MA, 01966",
        "phone": "978-546-6321",
        "region": "ROCKPORT",
        "mbta access": "no",
        "Lunch Detail": "",
        "Dinner Details": "Dinner: $33 for three-course menu",
        "marker-size": "small",
        "marker-symbol": "restaurant",
        "geo_accuracy": "house",
        "geo_longitude": "-70.624505",
        "geo_latitude": "42.679747"
      },
      "type": "Feature",
      "geometry": {
        "type": "Point",
        "coordinates": [
          -70.624505,
          42.679747
        ]
      }
    },
    {
      "id": "GRILL 23 & BAR STEAKHOUSE",
      "properties": {
        "name": "GRILL 23 & BAR STEAKHOUSE",
        "address": "161 Berkeley Street, Boston, MA, 02116",
        "phone": "617-542-2255",
        "region": "BACK BAY",
        "mbta access": "yes",
        "Lunch Detail": "",
        "Dinner Details": "Dinner: $38 for three-course menu",
        "marker-size": "small",
        "marker-symbol": "restaurant",
        "geo_accuracy": "house",
        "geo_longitude": "-71.0720552222222",
        "geo_latitude": "42.3493814444444"
      },
      "type": "Feature",
      "geometry": {
        "type": "Point",
        "coordinates": [
          -71.0720552222222,
          42.3493814444444
        ]
      }
    },
    {
      "id": "GROTTO ITALIAN",
      "properties": {
        "name": "GROTTO ITALIAN",
        "address": "37 Bowdoin Street, Boston, MA, 02114",
        "phone": "617-227-3434",
        "region": "BEACON HILL",
        "mbta access": "yes",
        "Lunch Detail": "Lunch: $15 for one course; $20 for two-course menu; $25 for three-course menu",
        "Dinner Details": "Dinner: $28 for two-course menu; $33 for three-course menu",
        "marker-size": "small",
        "marker-symbol": "restaurant",
        "geo_accuracy": "house",
        "geo_longitude": "-71.06297814859",
        "geo_latitude": "42.3601421382993"
      },
      "type": "Feature",
      "geometry": {
        "type": "Point",
        "coordinates": [
          -71.06297814859,
          42.3601421382993
        ]
      }
    },
    {
      "id": "HARU ASIAN     /JAPANESE/SEAFOOD/SUSHI",
      "properties": {
        "name": "HARU ASIAN     /JAPANESE/SEAFOOD/SUSHI",
        "address": "55 Huntington Avenue, Boston, MA, 02199",
        "phone": "617-536-0770",
        "region": "BACK BAY",
        "mbta access": "yes",
        "Lunch Detail": "Lunch: $25 for three-course menu",
        "Dinner Details": "Dinner: $38 for three-course menu",
        "marker-size": "small",
        "marker-symbol": "restaurant",
        "geo_accuracy": "primary",
        "geo_longitude": "-71.0810012",
        "geo_latitude": "42.3460352"
      },
      "type": "Feature",
      "geometry": {
        "type": "Point",
        "coordinates": [
          -71.0810012,
          42.3460352
        ]
      }
    },
    {
      "id": "HARVEST AMERICAN",
      "properties": {
        "name": "HARVEST AMERICAN",
        "address": "44 Brattle Street, Cambridge, MA, 02138",
        "phone": "617-868-2255",
        "region": "CAMBRIDGE",
        "mbta access": "yes",
        "Lunch Detail": "Lunch: $25 for three-course menu; $20 for two-course menu",
        "Dinner Details": "Dinner: $38 for three-course menu",
        "marker-size": "small",
        "marker-symbol": "restaurant",
        "geo_accuracy": "house",
        "geo_longitude": "-71.121488",
        "geo_latitude": "42.373822"
      },
      "type": "Feature",
      "geometry": {
        "type": "Point",
        "coordinates": [
          -71.121488,
          42.373822
        ]
      }
    },
    {
      "id": "HENRIETTA'S TABLE AMERICAN",
      "properties": {
        "name": "HENRIETTA'S TABLE AMERICAN",
        "address": "1 Bennett Street, Cambridge, MA, 02138",
        "phone": "617-661-5005",
        "region": "CAMBRIDGE",
        "mbta access": "yes",
        "Lunch Detail": "Lunch: $20 for three-course menu",
        "Dinner Details": "Dinner: $33 for three-course menu",
        "marker-size": "small",
        "marker-symbol": "restaurant",
        "geo_accuracy": "house",
        "geo_longitude": "-71.122743",
        "geo_latitude": "42.372518"
      },
      "type": "Feature",
      "geometry": {
        "type": "Point",
        "coordinates": [
          -71.122743,
          42.372518
        ]
      }
    },
    {
      "id": "THE HUNGRY I AMERICAN",
      "properties": {
        "name": "THE HUNGRY I AMERICAN",
        "address": "71 Charles Street, Boston, MA, 02114",
        "phone": "617-227-3524",
        "region": "BEACON HILL",
        "mbta access": "yes",
        "Lunch Detail": "",
        "Dinner Details": "Dinner: $38 for three-course menu",
        "marker-size": "small",
        "marker-symbol": "restaurant",
        "geo_accuracy": "house",
        "geo_longitude": "-71.0703867352843",
        "geo_latitude": "42.3581727877977"
      },
      "type": "Feature",
      "geometry": {
        "type": "Point",
        "coordinates": [
          -71.0703867352843,
          42.3581727877977
        ]
      }
    },
    {
      "id": "KIKA TAPAS SPANISH",
      "properties": {
        "name": "KIKA TAPAS SPANISH",
        "address": "350 3rd Street, Cambridge, MA, 02142",
        "phone": "617-245-6030",
        "region": "CAMBRIDGE",
        "mbta access": "yes",
        "Lunch Detail": "Lunch: $20 for two-course menu",
        "Dinner Details": "Dinner: $33 for three-course menu",
        "marker-size": "small",
        "marker-symbol": "restaurant",
        "geo_accuracy": "secondary",
        "geo_longitude": "-71.080298",
        "geo_latitude": "42.3689544"
      },
      "type": "Feature",
      "geometry": {
        "type": "Point",
        "coordinates": [
          -71.080298,
          42.3689544
        ]
      }
    },
    {
      "id": "KITCHEN AMERICAN",
      "properties": {
        "name": "KITCHEN AMERICAN",
        "address": "560 Tremont Street, Boston, MA, 02118",
        "phone": "617-695-1250",
        "region": "SOUTH END",
        "mbta access": "yes",
        "Lunch Detail": "Lunch: $15 for one-course menu; $20 for two-course menu; $25 for three-course menu",
        "Dinner Details": "Dinner: $38 for three-course menu",
        "marker-size": "small",
        "marker-symbol": "restaurant",
        "geo_accuracy": "house",
        "geo_longitude": "-71.071939",
        "geo_latitude": "42.343696"
      },
      "type": "Feature",
      "geometry": {
        "type": "Point",
        "coordinates": [
          -71.071939,
          42.343696
        ]
      }
    },
    {
      "id": "L'ANDANA ITALIAN",
      "properties": {
        "name": "L'ANDANA ITALIAN",
        "address": "86 Cambridge Street, Burlington, MA, 01803",
        "phone": "781-270-0100",
        "region": "BURLINGTON",
        "mbta access": "no",
        "Lunch Detail": "",
        "Dinner Details": "Dinner: $38 for three-course menu",
        "marker-size": "small",
        "marker-symbol": "restaurant",
        "geo_accuracy": "house",
        "geo_longitude": "-71.1945887736512",
        "geo_latitude": "42.4942477576942"
      },
      "type": "Feature",
      "geometry": {
        "type": "Point",
        "coordinates": [
          -71.1945887736512,
          42.4942477576942
        ]
      }
    },
    {
      "id": "LA MORRA ITALIAN",
      "properties": {
        "name": "LA MORRA ITALIAN",
        "address": "48 Boylston Street, Brookline, MA, 02445",
        "phone": "617-739-0007",
        "region": "BROOKLINE",
        "mbta access": "yes",
        "Lunch Detail": "",
        "Dinner Details": "Dinner: $38 for four-course menu",
        "marker-size": "small",
        "marker-symbol": "restaurant",
        "geo_accuracy": "house",
        "geo_longitude": "-71.1608763541667",
        "geo_latitude": "42.3245168333333"
      },
      "type": "Feature",
      "geometry": {
        "type": "Point",
        "coordinates": [
          -71.1608763541667,
          42.3245168333333
        ]
      }
    },
    {
      "id": "LA VOILE FRENCH",
      "properties": {
        "name": "LA VOILE FRENCH",
        "address": "261 Newbury Street, Boston, MA, 02116",
        "phone": "617-587-4200",
        "region": "BACK BAY",
        "mbta access": "yes",
        "Lunch Detail": "Lunch: $20 for three-course menu",
        "Dinner Details": "Dinner: $38 for three-course menu",
        "marker-size": "small",
        "marker-symbol": "restaurant",
        "geo_accuracy": "house",
        "geo_longitude": "-71.0832952014178",
        "geo_latitude": "42.3494757095677"
      },
      "type": "Feature",
      "geometry": {
        "type": "Point",
        "coordinates": [
          -71.0832952014178,
          42.3494757095677
        ]
      }
    },
    {
      "id": "LALA ROKH MIDDLE EASTERN",
      "properties": {
        "name": "LALA ROKH MIDDLE EASTERN",
        "address": "97 Mount Vernon St, Boston, MA, 02108",
        "phone": "617-720-5511",
        "region": "BEACON HILL",
        "mbta access": "yes",
        "Lunch Detail": "Lunch: $20 for three-course menu",
        "Dinner Details": "Dinner: $38 for three-course menu",
        "marker-size": "small",
        "marker-symbol": "restaurant",
        "geo_accuracy": "house",
        "geo_longitude": "-71.069627",
        "geo_latitude": "42.357992"
      },
      "type": "Feature",
      "geometry": {
        "type": "Point",
        "coordinates": [
          -71.069627,
          42.357992
        ]
      }
    },
    {
      "id": "LEFT BANK AMERICAN",
      "properties": {
        "name": "LEFT BANK AMERICAN",
        "address": "160 Pawtucket Boulevard, Tyngsboro, MA, 01879",
        "phone": "978-649-4400",
        "region": "TYNGSBORO",
        "mbta access": "no",
        "Lunch Detail": "Lunch: $20 for three-course menu",
        "Dinner Details": "Dinner: $38 for three-course menu",
        "marker-size": "small",
        "marker-symbol": "restaurant",
        "geo_accuracy": "hotel",
        "geo_longitude": "-71.3965534133497",
        "geo_latitude": "42.65941875"
      },
      "type": "Feature",
      "geometry": {
        "type": "Point",
        "coordinates": [
          -71.3965534133497,
          42.65941875
        ]
      }
    },
    {
      "id": "LEGAL SEA FOODS - CHESTNUT HILL SEAFOOD",
      "properties": {
        "name": "LEGAL SEA FOODS - CHESTNUT HILL SEAFOOD",
        "address": "43 Boylston Street, Chestnut Hill, MA, 02467",
        "phone": "617-277-7300",
        "region": "CHESTNUT HILL",
        "mbta access": "yes",
        "Lunch Detail": "Lunch: $20 for three-course menu",
        "Dinner Details": "Dinner: $38 for three-course menu",
        "marker-size": "small",
        "marker-symbol": "restaurant",
        "geo_accuracy": "house",
        "geo_longitude": "-71.1705854919526",
        "geo_latitude": "42.3217237804165"
      },
      "type": "Feature",
      "geometry": {
        "type": "Point",
        "coordinates": [
          -71.1705854919526,
          42.3217237804165
        ]
      }
    },
    {
      "id": "LEGAL SEA FOODS - PARK SQUARE SEAFOOD",
      "properties": {
        "name": "LEGAL SEA FOODS - PARK SQUARE SEAFOOD",
        "address": "26 Park Square, Boston, MA, 02116",
        "phone": "617-426-4444",
        "region": "BACK BAY",
        "mbta access": "yes",
        "Lunch Detail": "Lunch: $20 for three-course menu",
        "Dinner Details": "Dinner: $38 for three-course menu",
        "marker-size": "small",
        "marker-symbol": "restaurant",
        "geo_accuracy": "house",
        "geo_longitude": "-71.067478",
        "geo_latitude": "42.351188"
      },
      "type": "Feature",
      "geometry": {
        "type": "Point",
        "coordinates": [
          -71.067478,
          42.351188
        ]
      }
    },
    {
      "id": "LES ZYGOMATES FRENCH",
      "properties": {
        "name": "LES ZYGOMATES FRENCH",
        "address": "129 South Street, Boston, MA, 02111",
        "phone": "617-542-5108",
        "region": "DOWNTOWN",
        "mbta access": "yes",
        "Lunch Detail": "",
        "Dinner Details": "Dinner: $38 for three-course menu",
        "marker-size": "small",
        "marker-symbol": "restaurant",
        "geo_accuracy": "house",
        "geo_longitude": "-71.0574655333333",
        "geo_latitude": "42.3511781"
      },
      "type": "Feature",
      "geometry": {
        "type": "Point",
        "coordinates": [
          -71.0574655333333,
          42.3511781
        ]
      }
    },
    {
      "id": "LINEAGE AMERICAN",
      "properties": {
        "name": "LINEAGE AMERICAN",
        "address": "242 Harvard Street, Brookline, MA, 02446",
        "phone": "617-232-0065",
        "region": "BROOKLINE",
        "mbta access": "yes",
        "Lunch Detail": "",
        "Dinner Details": "Dinner: $38 for three-course menu",
        "marker-size": "small",
        "marker-symbol": "restaurant",
        "geo_accuracy": "house",
        "geo_longitude": "-71.121138",
        "geo_latitude": "42.341363"
      },
      "type": "Feature",
      "geometry": {
        "type": "Point",
        "coordinates": [
          -71.121138,
          42.341363
        ]
      }
    },
    {
      "id": "LUCCA ITALIAN",
      "properties": {
        "name": "LUCCA ITALIAN",
        "address": "226 Hanover Street, Boston, MA, 02113",
        "phone": "617-742-9200",
        "region": "NORTH END",
        "mbta access": "yes",
        "Lunch Detail": "",
        "Dinner Details": "Dinner: $38 for three-course menu",
        "marker-size": "small",
        "marker-symbol": "restaurant",
        "geo_accuracy": "house",
        "geo_longitude": "-71.05529325",
        "geo_latitude": "42.363136375"
      },
      "type": "Feature",
      "geometry": {
        "type": "Point",
        "coordinates": [
          -71.05529325,
          42.363136375
        ]
      }
    },
    {
      "id": "LUCCA BACK BAY ITALIAN",
      "properties": {
        "name": "LUCCA BACK BAY ITALIAN",
        "address": "116 Huntington Avenue, Boston, MA, 02116",
        "phone": "617-247-2400",
        "region": "BACK BAY",
        "mbta access": "yes",
        "Lunch Detail": "",
        "Dinner Details": "Dinner: $38 for three-course menu",
        "marker-size": "small",
        "marker-symbol": "restaurant",
        "geo_accuracy": "house",
        "geo_longitude": "-71.0811651",
        "geo_latitude": "42.3456275"
      },
      "type": "Feature",
      "geometry": {
        "type": "Point",
        "coordinates": [
          -71.0811651,
          42.3456275
        ]
      }
    },
    {
      "id": "MAMMA MARIA ITALIAN",
      "properties": {
        "name": "MAMMA MARIA ITALIAN",
        "address": "3 North Square, Boston, MA, 02113",
        "phone": "617-523-0077",
        "region": "NORTH END",
        "mbta access": "yes",
        "Lunch Detail": "",
        "Dinner Details": "Dinner: $38",
        "marker-size": "small",
        "marker-symbol": "restaurant",
        "geo_accuracy": "house",
        "geo_longitude": "-71.0536775",
        "geo_latitude": "42.36350375"
      },
      "type": "Feature",
      "geometry": {
        "type": "Point",
        "coordinates": [
          -71.0536775,
          42.36350375
        ]
      }
    },
    {
      "id": "MASA RESTAURANT MEXICAN / SOUTHWESTERN",
      "properties": {
        "name": "MASA RESTAURANT MEXICAN / SOUTHWESTERN",
        "address": "439 Tremont Street, Boston, MA, 02116",
        "phone": "617-338-8884",
        "region": "SOUTH END",
        "mbta access": "yes",
        "Lunch Detail": "",
        "Dinner Details": "Dinner: $28 for three-course menu",
        "marker-size": "small",
        "marker-symbol": "restaurant",
        "geo_accuracy": "house",
        "geo_longitude": "-71.0691357333333",
        "geo_latitude": "42.3467774"
      },
      "type": "Feature",
      "geometry": {
        "type": "Point",
        "coordinates": [
          -71.0691357333333,
          42.3467774
        ]
      }
    },
    {
      "id": "MASA SOUTHWEST BAR & GRILL MEXICAN / SOUTHWESTERN",
      "properties": {
        "name": "MASA SOUTHWEST BAR & GRILL MEXICAN / SOUTHWESTERN",
        "address": "350 Cambridge Road, Woburn, MA, 01801",
        "phone": "781-938-8886",
        "region": "WOBURN",
        "mbta access": "no",
        "Lunch Detail": "Lunch: $15 for two-course menu",
        "Dinner Details": "Dinner: $28 for three-course menu",
        "marker-size": "small",
        "marker-symbol": "restaurant",
        "geo_accuracy": "primary",
        "geo_longitude": "-71.167985",
        "geo_latitude": "42.461373"
      },
      "type": "Feature",
      "geometry": {
        "type": "Point",
        "coordinates": [
          -71.167985,
          42.461373
        ]
      }
    },
    {
      "id": "MASONA GRILL AMERICAN",
      "properties": {
        "name": "MASONA GRILL AMERICAN",
        "address": "4 Corey Street, West Roxbury, MA, 02132",
        "phone": "617-323-3331",
        "region": "WEST ROXBURY",
        "mbta access": "yes",
        "Lunch Detail": "",
        "Dinner Details": "Dinner: $33 for two-course menu",
        "marker-size": "small",
        "marker-symbol": "restaurant",
        "geo_accuracy": "house",
        "geo_longitude": "-71.155063",
        "geo_latitude": "42.2847455"
      },
      "type": "Feature",
      "geometry": {
        "type": "Point",
        "coordinates": [
          -71.155063,
          42.2847455
        ]
      }
    },
    {
      "id": "MAX BRENNER AMERICAN",
      "properties": {
        "name": "MAX BRENNER AMERICAN",
        "address": "745 Boylston Street, Boston, MA, 02116",
        "phone": "617-274-1741",
        "region": "BACK BAY",
        "mbta access": "yes",
        "Lunch Detail": "Lunch: $20 for three-course menu",
        "Dinner Details": "Dinner: $38 for three-course menu",
        "marker-size": "small",
        "marker-symbol": "restaurant",
        "geo_accuracy": "house",
        "geo_longitude": "-71.080479",
        "geo_latitude": "42.34936"
      },
      "type": "Feature",
      "geometry": {
        "type": "Point",
        "coordinates": [
          -71.080479,
          42.34936
        ]
      }
    },
    {
      "id": "MCCORMICK & SCHMICK'S SEAFOOD",
      "properties": {
        "name": "MCCORMICK & SCHMICK'S SEAFOOD",
        "address": "34 Columbus Avenue, Boston, MA, 02116",
        "phone": "617-482-3999",
        "region": "THEATER DISTRICT",
        "mbta access": "yes",
        "Lunch Detail": "Lunch: $20 for three-course menu",
        "Dinner Details": "Dinner: $33 for three-course menu",
        "marker-size": "small",
        "marker-symbol": "restaurant",
        "geo_accuracy": "house",
        "geo_longitude": "-71.0689335223529",
        "geo_latitude": "42.3508134258541"
      },
      "type": "Feature",
      "geometry": {
        "type": "Point",
        "coordinates": [
          -71.0689335223529,
          42.3508134258541
        ]
      }
    },
    {
      "id": "MCCORMICK & SCHMICK'S FANEUIL HALL SEAFOOD",
      "properties": {
        "name": "MCCORMICK & SCHMICK'S FANEUIL HALL SEAFOOD",
        "address": "1 Faneuil Hall Marker Place, Boston, MA, 02109",
        "phone": "617-720-5522",
        "region": "FANEUIL HALL",
        "mbta access": "yes",
        "Lunch Detail": "Lunch: $20 for three-course menu",
        "Dinner Details": "Dinner: $33 for three-course menu",
        "marker-size": "small",
        "marker-symbol": "restaurant",
        "geo_accuracy": "retail",
        "geo_longitude": "-71.0546435137174",
        "geo_latitude": "42.3600563"
      },
      "type": "Feature",
      "geometry": {
        "type": "Point",
        "coordinates": [
          -71.0546435137174,
          42.3600563
        ]
      }
    },
    {
      "id": "THE MELTING POT FONDUE",
      "properties": {
        "name": "THE MELTING POT FONDUE",
        "address": "76 Arlington Street, Boston, MA, 02116",
        "phone": "617-357-7007",
        "region": "THEATER DISTRICT",
        "mbta access": "yes",
        "Lunch Detail": "",
        "Dinner Details": "Dinner: $33 for three-course menu",
        "marker-size": "small",
        "marker-symbol": "restaurant",
        "geo_accuracy": "secondary",
        "geo_longitude": "-71.0702917",
        "geo_latitude": "42.3510683"
      },
      "type": "Feature",
      "geometry": {
        "type": "Point",
        "coordinates": [
          -71.0702917,
          42.3510683
        ]
      }
    },
    {
      "id": "THE MELTING POT BEDFORD/BURLINGTON FONDUE",
      "properties": {
        "name": "THE MELTING POT BEDFORD/BURLINGTON FONDUE",
        "address": "213 Burlington Road, Bedford, MA, 01730",
        "phone": "781-791-0529",
        "region": "BURLINGTON",
        "mbta access": "no",
        "Lunch Detail": "",
        "Dinner Details": "Dinner: $33 for three-course menu",
        "marker-size": "small",
        "marker-symbol": "restaurant",
        "geo_accuracy": "secondary",
        "geo_longitude": "-71.254288",
        "geo_latitude": "42.499639"
      },
      "type": "Feature",
      "geometry": {
        "type": "Point",
        "coordinates": [
          -71.254288,
          42.499639
        ]
      }
    },
    {
      "id": "THE MELTING POT BEDFORD/BURLINGTON FONDUE",
      "properties": {
        "name": "THE MELTING POT BEDFORD/BURLINGTON FONDUE",
        "address": "213 Burlington Road, Bedford, MA, 01730",
        "phone": "781-791-0529",
        "region": "BEDFORD",
        "mbta access": "no",
        "Lunch Detail": "",
        "Dinner Details": "Dinner: $33 for three-course menu",
        "marker-size": "small",
        "marker-symbol": "restaurant",
        "geo_accuracy": "secondary",
        "geo_longitude": "-71.254288",
        "geo_latitude": "42.499639"
      },
      "type": "Feature",
      "geometry": {
        "type": "Point",
        "coordinates": [
          -71.254288,
          42.499639
        ]
      }
    },
    {
      "id": "THE MERCHANT KITCHEN AND DRINKS AMERICAN",
      "properties": {
        "name": "THE MERCHANT KITCHEN AND DRINKS AMERICAN",
        "address": "60 Franklin Street Boston, Boston, MA, 02110",
        "phone": "617-482-6060",
        "region": "DOWNTOWN",
        "mbta access": "yes",
        "Lunch Detail": "Lunch: $25 for three-course menu",
        "Dinner Details": "Dinner: $38 for three-course menu",
        "marker-size": "small",
        "marker-symbol": "restaurant",
        "geo_accuracy": "house",
        "geo_longitude": "-71.057845",
        "geo_latitude": "42.35556"
      },
      "type": "Feature",
      "geometry": {
        "type": "Point",
        "coordinates": [
          -71.057845,
          42.35556
        ]
      }
    },
    {
      "id": "MERITAGE AMERICAN",
      "properties": {
        "name": "MERITAGE AMERICAN",
        "address": "70 Rowes Wharf, Boston, MA, 02110",
        "phone": "617-439-3995",
        "region": "WATERFRONT",
        "mbta access": "yes",
        "Lunch Detail": "",
        "Dinner Details": "Dinner: $38 for three-course menu",
        "marker-size": "small",
        "marker-symbol": "restaurant",
        "geo_accuracy": "house",
        "geo_longitude": "-71.0499899166667",
        "geo_latitude": "42.3571244583333"
      },
      "type": "Feature",
      "geometry": {
        "type": "Point",
        "coordinates": [
          -71.0499899166667,
          42.3571244583333
        ]
      }
    },
    {
      "id": "THE MET BACK BAY AMERICAN",
      "properties": {
        "name": "THE MET BACK BAY AMERICAN",
        "address": "279 Dartmouth Street, Boston, MA, 02116",
        "phone": "617-267-0451",
        "region": "BACK BAY",
        "mbta access": "yes",
        "Lunch Detail": "Lunch: $20 for three-course menu",
        "Dinner Details": "Dinner: $33 for three-course menu",
        "marker-size": "small",
        "marker-symbol": "restaurant",
        "geo_accuracy": "house",
        "geo_longitude": "-71.077707",
        "geo_latitude": "42.351034"
      },
      "type": "Feature",
      "geometry": {
        "type": "Point",
        "coordinates": [
          -71.077707,
          42.351034
        ]
      }
    },
    {
      "id": "METROPOLIS CAFE MEDITERRANEAN",
      "properties": {
        "name": "METROPOLIS CAFE MEDITERRANEAN",
        "address": "584 Tremont Street, Boston, MA, 02118",
        "phone": "617-247-2931",
        "region": "SOUTH END",
        "mbta access": "yes",
        "Lunch Detail": "",
        "Dinner Details": "Dinner: $33 for three-course menu",
        "marker-size": "small",
        "marker-symbol": "restaurant",
        "geo_accuracy": "house",
        "geo_longitude": "-71.07289425",
        "geo_latitude": "42.34319875"
      },
      "type": "Feature",
      "geometry": {
        "type": "Point",
        "coordinates": [
          -71.07289425,
          42.34319875
        ]
      }
    },
    {
      "id": "MIEL BRASSERIE FRENCH",
      "properties": {
        "name": "MIEL BRASSERIE FRENCH",
        "address": "510 Atlantic Avenue, Boston, MA, 02210",
        "phone": "617-217-5151",
        "region": "WATERFRONT",
        "mbta access": "yes",
        "Lunch Detail": "Lunch: $25 for three-course menu",
        "Dinner Details": "Dinner: $38 for three-course menu",
        "marker-size": "small",
        "marker-symbol": "restaurant",
        "geo_accuracy": "house",
        "geo_longitude": "-71.053415",
        "geo_latitude": "42.3536731538462"
      },
      "type": "Feature",
      "geometry": {
        "type": "Point",
        "coordinates": [
          -71.053415,
          42.3536731538462
        ]
      }
    },
    {
      "id": "MISTRAL FRENCH",
      "properties": {
        "name": "MISTRAL FRENCH",
        "address": "223 Columbus Avenue, Boston, MA, 02116",
        "phone": "617-867-9300",
        "region": "BACK BAY",
        "mbta access": "yes",
        "Lunch Detail": "",
        "Dinner Details": "Dinner: $38 for three-course menu",
        "marker-size": "small",
        "marker-symbol": "restaurant",
        "geo_accuracy": "house",
        "geo_longitude": "-71.0734901081081",
        "geo_latitude": "42.3474151081081"
      },
      "type": "Feature",
      "geometry": {
        "type": "Point",
        "coordinates": [
          -71.0734901081081,
          42.3474151081081
        ]
      }
    },
    {
      "id": "MOOO STEAKHOUSE",
      "properties": {
        "name": "MOOO STEAKHOUSE",
        "address": "15 Beacon Street, Boston, MA, 02108",
        "phone": "617-670-2515",
        "region": "BEACON HILL",
        "mbta access": "yes",
        "Lunch Detail": "Lunch: $25 for three-course menu",
        "Dinner Details": "",
        "marker-size": "small",
        "marker-symbol": "restaurant",
        "geo_accuracy": "house",
        "geo_longitude": "-71.0622155467072",
        "geo_latitude": "42.3582519289827"
      },
      "type": "Feature",
      "geometry": {
        "type": "Point",
        "coordinates": [
          -71.0622155467072,
          42.3582519289827
        ]
      }
    },
    {
      "id": "MORTON'S THE STEAKHOUSE SEAPORT STEAKHOUSE",
      "properties": {
        "name": "MORTON'S THE STEAKHOUSE SEAPORT STEAKHOUSE",
        "address": "2 Seaport Lane, Boston, MA, 02210",
        "phone": "617-526-0410",
        "region": "WATERFRONT",
        "mbta access": "yes",
        "Lunch Detail": "Lunch: $20 for three-course menu",
        "Dinner Details": "Dinner: $38 for three-course menu",
        "marker-size": "small",
        "marker-symbol": "restaurant",
        "geo_accuracy": "residential",
        "geo_longitude": "-71.0415235",
        "geo_latitude": "42.3485826"
      },
      "type": "Feature",
      "geometry": {
        "type": "Point",
        "coordinates": [
          -71.0415235,
          42.3485826
        ]
      }
    },
    {
      "id": "NICO ITALIAN",
      "properties": {
        "name": "NICO ITALIAN",
        "address": "417 Hanover Street, Boston, MA, 02113",
        "phone": "617-742-0404",
        "region": "NORTH END",
        "mbta access": "yes",
        "Lunch Detail": "",
        "Dinner Details": "Dinner: $38 for two-course menu",
        "marker-size": "small",
        "marker-symbol": "restaurant",
        "geo_accuracy": "house",
        "geo_longitude": "-71.052787",
        "geo_latitude": "42.365692"
      },
      "type": "Feature",
      "geometry": {
        "type": "Point",
        "coordinates": [
          -71.052787,
          42.365692
        ]
      }
    },
    {
      "id": "NUBAR RESTAURANT AMERICAN",
      "properties": {
        "name": "NUBAR RESTAURANT AMERICAN",
        "address": "16 Garden Street, Cambridge, MA, 02138",
        "phone": "617-234-1365",
        "region": "CAMBRIDGE",
        "mbta access": "yes",
        "Lunch Detail": "",
        "Dinner Details": "Dinner: $33 for three-course menu",
        "marker-size": "small",
        "marker-symbol": "restaurant",
        "geo_accuracy": "house",
        "geo_longitude": "-71.123023",
        "geo_latitude": "42.377355"
      },
      "type": "Feature",
      "geometry": {
        "type": "Point",
        "coordinates": [
          -71.123023,
          42.377355
        ]
      }
    },
    {
      "id": "OCEANAIRE SEAFOOD ROOM SEAFOOD",
      "properties": {
        "name": "OCEANAIRE SEAFOOD ROOM SEAFOOD",
        "address": "40 Court Street, Boston, MA, 02108",
        "phone": "617-742-2277",
        "region": "DOWNTOWN",
        "mbta access": "yes",
        "Lunch Detail": "Lunch: $25 for three-course menu",
        "Dinner Details": "Dinner: $38 for three-course menu",
        "marker-size": "small",
        "marker-symbol": "restaurant",
        "geo_accuracy": "house",
        "geo_longitude": "-71.0586387291667",
        "geo_latitude": "42.35921475"
      },
      "type": "Feature",
      "geometry": {
        "type": "Point",
        "coordinates": [
          -71.0586387291667,
          42.35921475
        ]
      }
    },
    {
      "id": "ODYSSEY CRUISES CONTEMPORARY AMERICAN",
      "properties": {
        "name": "ODYSSEY CRUISES CONTEMPORARY AMERICAN",
        "address": "60 Rowes Wharf, Boston, MA, 02110",
        "phone": "866-429-9283",
        "region": "WATERFRONT",
        "mbta access": "no",
        "Lunch Detail": "",
        "Dinner Details": "Dinner: $38 for three-course menu",
        "marker-size": "small",
        "marker-symbol": "restaurant",
        "geo_accuracy": "house",
        "geo_longitude": "-71.0500659583333",
        "geo_latitude": "42.3571024791667"
      },
      "type": "Feature",
      "geometry": {
        "type": "Point",
        "coordinates": [
          -71.0500659583333,
          42.3571024791667
        ]
      }
    },
    {
      "id": "OISHII ASIAN",
      "properties": {
        "name": "OISHII ASIAN",
        "address": "1166 Washington Street, Boston, MA, 02118",
        "phone": "617-482-8868",
        "region": "SOUTH END",
        "mbta access": "yes",
        "Lunch Detail": "Lunch: $20 for three-course menu",
        "Dinner Details": "",
        "marker-size": "small",
        "marker-symbol": "restaurant",
        "geo_accuracy": "house",
        "geo_longitude": "-71.066375295812",
        "geo_latitude": "42.343253899285"
      },
      "type": "Feature",
      "geometry": {
        "type": "Point",
        "coordinates": [
          -71.066375295812,
          42.343253899285
        ]
      }
    },
    {
      "id": "OLE MEXICAN GRILL MEXICAN",
      "properties": {
        "name": "OLE MEXICAN GRILL MEXICAN",
        "address": "11 Springfield Street, Cambridge, MA, 02139",
        "phone": "617-492-4495",
        "region": "CAMBRIDGE",
        "mbta access": "yes",
        "Lunch Detail": "Lunch: $15 for three-course menu",
        "Dinner Details": "Dinner: $33 for three-course menu",
        "marker-size": "small",
        "marker-symbol": "restaurant",
        "geo_accuracy": "house",
        "geo_longitude": "-71.1003515",
        "geo_latitude": "42.3739315"
      },
      "type": "Feature",
      "geometry": {
        "type": "Point",
        "coordinates": [
          -71.1003515,
          42.3739315
        ]
      }
    },
    {
      "id": "OSAKA ASIAN /JAPANESE/SEAFOOD/STEAKHOUSE/SUSHI",
      "properties": {
        "name": "OSAKA ASIAN /JAPANESE/SEAFOOD/STEAKHOUSE/SUSHI",
        "address": "14 Green Street, Brookline, MA, 02446",
        "phone": "617-732-0088",
        "region": "BROOKLINE",
        "mbta access": "yes",
        "Lunch Detail": "Lunch: $15 for two-course menu",
        "Dinner Details": "Dinner: $28 for three-course menu",
        "marker-size": "small",
        "marker-symbol": "restaurant",
        "geo_accuracy": "restaurant",
        "geo_longitude": "-71.1218244",
        "geo_latitude": "42.3431489"
      },
      "type": "Feature",
      "geometry": {
        "type": "Point",
        "coordinates": [
          -71.1218244,
          42.3431489
        ]
      }
    },
    {
      "id": "PALM RESTAURANT STEAKHOUSE",
      "properties": {
        "name": "PALM RESTAURANT STEAKHOUSE",
        "address": "One International Place, Boston, MA, 02110",
        "phone": "617-867-9292",
        "region": "BACK BAY",
        "mbta access": "yes",
        "Lunch Detail": "",
        "Dinner Details": "Dinner: $38 for three-course menu",
        "marker-size": "small",
        "marker-symbol": "restaurant",
        "geo_accuracy": "yes",
        "geo_longitude": "-71.0521484253727",
        "geo_latitude": "42.35570635"
      },
      "type": "Feature",
      "geometry": {
        "type": "Point",
        "coordinates": [
          -71.0521484253727,
          42.35570635
        ]
      }
    },
    {
      "id": "PAPA RAZZI ITALIAN",
      "properties": {
        "name": "PAPA RAZZI ITALIAN",
        "address": "159 Newbury Street, Boston, MA, 02116",
        "phone": "617-536-9200",
        "region": "BACK BAY",
        "mbta access": "yes",
        "Lunch Detail": "Lunch: $20 for two-course menu",
        "Dinner Details": "Dinner: $33 for three-course menu",
        "marker-size": "small",
        "marker-symbol": "restaurant",
        "geo_accuracy": "house",
        "geo_longitude": "-71.078399",
        "geo_latitude": "42.350799"
      },
      "type": "Feature",
      "geometry": {
        "type": "Point",
        "coordinates": [
          -71.078399,
          42.350799
        ]
      }
    },
    {
      "id": "PARKER'S AMERICAN",
      "properties": {
        "name": "PARKER'S AMERICAN",
        "address": "60 School Street, Boston, MA, 02108",
        "phone": "617-725-1600",
        "region": "DOWNTOWN",
        "mbta access": "yes",
        "Lunch Detail": "Lunch: $25 for three-course menu",
        "Dinner Details": "Dinner: $38 for three-course menu",
        "marker-size": "small",
        "marker-symbol": "restaurant",
        "geo_accuracy": "house",
        "geo_longitude": "-71.0598681818182",
        "geo_latitude": "42.3578532727273"
      },
      "type": "Feature",
      "geometry": {
        "type": "Point",
        "coordinates": [
          -71.0598681818182,
          42.3578532727273
        ]
      }
    },
    {
      "id": "PETIT ROBERT FRENCH",
      "properties": {
        "": "Lunch: $20 for three-course menu",
        "name": "PETIT ROBERT FRENCH",
        "address": "468 Commonwealth Avenue, Boston, MA, 02215",
        "phone": "617-375-0699",
        "region": "FENWAY/KENMORE",
        "mbta access": "yes",
        "Lunch Detail": "Dinner: $33 for three-course menu",
        "Dinner Details": "",
        "marker-size": "small",
        "marker-symbol": "restaurant",
        "geo_accuracy": "house",
        "geo_longitude": "-71.0940410488709",
        "geo_latitude": "42.3487394932372"
      },
      "type": "Feature",
      "geometry": {
        "type": "Point",
        "coordinates": [
          -71.0940410488709,
          42.3487394932372
        ]
      }
    },
    {
      "id": "PIERROT BISTROT FRANCAIS FRENCH",
      "properties": {
        "name": "PIERROT BISTROT FRANCAIS FRENCH",
        "address": "272 Cambridge Street, Boston, MA, 02114",
        "phone": "617-725-8855",
        "region": "BEACON HILL",
        "mbta access": "yes",
        "Lunch Detail": "Lunch: $20 for three-course menu",
        "Dinner Details": "Dinner: $28 for three-course menu",
        "marker-size": "small",
        "marker-symbol": "restaurant",
        "geo_accuracy": "house",
        "geo_longitude": "-71.068102",
        "geo_latitude": "42.361018"
      },
      "type": "Feature",
      "geometry": {
        "type": "Point",
        "coordinates": [
          -71.068102,
          42.361018
        ]
      }
    },
    {
      "id": "POST 390 AMERICAN",
      "properties": {
        "name": "POST 390 AMERICAN",
        "address": "406 Stuart Street, Boston, MA, 02116",
        "phone": "617-399-0015",
        "region": "BACK BAY",
        "mbta access": "yes",
        "Lunch Detail": "Lunch: $25 for three-course menu",
        "Dinner Details": "Dinner: $38 for three-course menu",
        "marker-size": "small",
        "marker-symbol": "restaurant",
        "geo_accuracy": "primary",
        "geo_longitude": "-71.0764191",
        "geo_latitude": "42.3483098"
      },
      "type": "Feature",
      "geometry": {
        "type": "Point",
        "coordinates": [
          -71.0764191,
          42.3483098
        ]
      }
    },
    {
      "id": "RED LANTERN ASIAN",
      "properties": {
        "name": "RED LANTERN ASIAN",
        "address": "39 Stanhope Street, Boston, MA, 02116",
        "phone": "617-262-3900",
        "region": "BACK BAY",
        "mbta access": "yes",
        "Lunch Detail": "",
        "Dinner Details": "Dinner: $33 for three-course menu",
        "marker-size": "small",
        "marker-symbol": "restaurant",
        "geo_accuracy": "house",
        "geo_longitude": "-71.0737801935484",
        "geo_latitude": "42.3486170645161"
      },
      "type": "Feature",
      "geometry": {
        "type": "Point",
        "coordinates": [
          -71.0737801935484,
          42.3486170645161
        ]
      }
    },
    {
      "id": "RIALTO ITALIAN",
      "properties": {
        "name": "RIALTO ITALIAN",
        "address": "1 Bennett Street, Cambridge, MA, 02138",
        "phone": "617-661-5050",
        "region": "CAMBRIDGE",
        "mbta access": "yes",
        "Lunch Detail": "",
        "Dinner Details": "Dinner: $38 for three-course menu",
        "marker-size": "small",
        "marker-symbol": "restaurant",
        "geo_accuracy": "house",
        "geo_longitude": "-71.122743",
        "geo_latitude": "42.372518"
      },
      "type": "Feature",
      "geometry": {
        "type": "Point",
        "coordinates": [
          -71.122743,
          42.372518
        ]
      }
    },
    {
      "id": "RISTORANTE FIORE ITALIAN",
      "properties": {
        "name": "RISTORANTE FIORE ITALIAN",
        "address": "250 Hanover Street, Boston, MA, 02113",
        "phone": "617-371-1176",
        "region": "NORTH END",
        "mbta access": "yes",
        "Lunch Detail": "Lunch: $25 for three-course menu; $20 for two-course menu; $15 for one-course menu (Entre Only)",
        "Dinner Details": "Dinner: $38 for three-course menu; $33 for two-course menu; $28 for one-course menu (Entre Only)",
        "marker-size": "small",
        "marker-symbol": "restaurant",
        "geo_accuracy": "house",
        "geo_longitude": "-71.0548592142857",
        "geo_latitude": "42.3635768571429"
      },
      "type": "Feature",
      "geometry": {
        "type": "Point",
        "coordinates": [
          -71.0548592142857,
          42.3635768571429
        ]
      }
    },
    {
      "id": "RISTORANTE OLIVIO ITALIAN",
      "properties": {
        "name": "RISTORANTE OLIVIO ITALIAN",
        "address": "201 Massachusetts Avenue, Arlington, MA, 02474",
        "phone": "781-648-2300",
        "region": "ARLINGTON",
        "mbta access": "no",
        "Lunch Detail": "",
        "Dinner Details": "Dinner: $33 for three-course menu",
        "marker-size": "small",
        "marker-symbol": "restaurant",
        "geo_accuracy": "restaurant",
        "geo_longitude": "-71.1422407",
        "geo_latitude": "42.4059991"
      },
      "type": "Feature",
      "geometry": {
        "type": "Point",
        "coordinates": [
          -71.1422407,
          42.4059991
        ]
      }
    },
    {
      "id": "RODIZIO GRILL BRAZILIAN STEAKHOUSE",
      "properties": {
        "name": "RODIZIO GRILL BRAZILIAN STEAKHOUSE",
        "address": "250 Granite Street, Braintree, MA, 02184",
        "phone": "781-356-9100",
        "region": "GREATER BOSTON",
        "mbta access": "no",
        "Lunch Detail": "Lunch: $20 for three-course menu",
        "Dinner Details": "Dinner: $28 for three-course menu",
        "marker-size": "small",
        "marker-symbol": "restaurant",
        "geo_accuracy": "restaurant",
        "geo_longitude": "-71.0234677",
        "geo_latitude": "42.21898595"
      },
      "type": "Feature",
      "geometry": {
        "type": "Point",
        "coordinates": [
          -71.0234677,
          42.21898595
        ]
      }
    },
    {
      "id": "ROW 34 SEAFOOD",
      "properties": {
        "name": "ROW 34 SEAFOOD",
        "address": "383 Congress Street, Boston, MA, 02210",
        "phone": "617-553-5900",
        "region": "WATERFRONT",
        "mbta access": "no",
        "Lunch Detail": "Lunch: $20 for three-course menu",
        "Dinner Details": "",
        "marker-size": "small",
        "marker-symbol": "restaurant",
        "geo_accuracy": "primary",
        "geo_longitude": "-71.0452296",
        "geo_latitude": "42.3491707"
      },
      "type": "Feature",
      "geometry": {
        "type": "Point",
        "coordinates": [
          -71.0452296,
          42.3491707
        ]
      }
    },
    {
      "id": "RUTH'S CHRIS STEAK HOUSE STEAKHOUSE",
      "properties": {
        "name": "RUTH'S CHRIS STEAK HOUSE STEAKHOUSE",
        "address": "45 School Street, Boston, MA, 02108",
        "phone": "617-742-8401",
        "region": "DOWNTOWN",
        "mbta access": "yes",
        "Lunch Detail": "Lunch: $20 for three-course menu",
        "Dinner Details": "Dinner: $38 for three-course menu",
        "marker-size": "small",
        "marker-symbol": "restaurant",
        "geo_accuracy": "house",
        "geo_longitude": "-71.059724",
        "geo_latitude": "42.357986"
      },
      "type": "Feature",
      "geometry": {
        "type": "Point",
        "coordinates": [
          -71.059724,
          42.357986
        ]
      }
    },
    {
      "id": "SANDRINE'S BISTRO FRENCH",
      "properties": {
        "name": "SANDRINE'S BISTRO FRENCH",
        "address": "8 Holyoke Street, Cambridge, MA, 02138",
        "phone": "617-497-5300",
        "region": "CAMBRIDGE",
        "mbta access": "yes",
        "Lunch Detail": "Lunch: $20 for three-course menu",
        "Dinner Details": "Dinner: $38 for three-course menu",
        "marker-size": "small",
        "marker-symbol": "restaurant",
        "geo_accuracy": "house",
        "geo_longitude": "-71.118540875",
        "geo_latitude": "42.372043125"
      },
      "type": "Feature",
      "geometry": {
        "type": "Point",
        "coordinates": [
          -71.118540875,
          42.372043125
        ]
      }
    },
    {
      "id": "SAVINOS GRILL ITALIAN",
      "properties": {
        "name": "SAVINOS GRILL ITALIAN",
        "address": "449 Common Street, Belmont, MA, 02478",
        "phone": "617-484-3499",
        "region": "BELMONT",
        "mbta access": "no",
        "Lunch Detail": "",
        "Dinner Details": "Dinner: $33 for three-course menu",
        "marker-size": "small",
        "marker-symbol": "restaurant",
        "geo_accuracy": "house",
        "geo_longitude": "-71.1750123452863",
        "geo_latitude": "42.3813216192737"
      },
      "type": "Feature",
      "geometry": {
        "type": "Point",
        "coordinates": [
          -71.1750123452863,
          42.3813216192737
        ]
      }
    },
    {
      "id": "SCAMPO ITALIAN",
      "properties": {
        "name": "SCAMPO ITALIAN",
        "address": "215 Charles Street, Boston, MA, 02114",
        "phone": "617-536-2100",
        "region": "BEACON HILL",
        "mbta access": "yes",
        "Lunch Detail": "Lunch: $25 for three-course menu",
        "Dinner Details": "",
        "marker-size": "small",
        "marker-symbol": "restaurant",
        "geo_accuracy": "hotel",
        "geo_longitude": "-71.0701587813972",
        "geo_latitude": "42.36206395"
      },
      "type": "Feature",
      "geometry": {
        "type": "Point",
        "coordinates": [
          -71.0701587813972,
          42.36206395
        ]
      }
    },
    {
      "id": "SEASONS 52 BURLINGTON AMERICAN",
      "properties": {
        "name": "SEASONS 52 BURLINGTON AMERICAN",
        "address": "6 Wayside Rd, Burlington, MA, 01803",
        "phone": "781-272-5552",
        "region": "BURLINGTON",
        "mbta access": "no",
        "Lunch Detail": "Lunch: $20 for three-course menu",
        "Dinner Details": "Dinner: $33 for five-course menu",
        "marker-size": "small",
        "marker-symbol": "restaurant",
        "geo_accuracy": "house",
        "geo_longitude": "-71.1938043053654",
        "geo_latitude": "42.4858033109586"
      },
      "type": "Feature",
      "geometry": {
        "type": "Point",
        "coordinates": [
          -71.1938043053654,
          42.4858033109586
        ]
      }
    },
    {
      "id": "SEASONS 52 CHESTNUT HILL AMERICAN",
      "properties": {
        "name": "SEASONS 52 CHESTNUT HILL AMERICAN",
        "address": "220 Boylston St, Chestnut Hill, MA, 02467",
        "phone": "",
        "region": "BURLINGTON",
        "mbta access": "no",
        "Lunch Detail": "Lunch: $20 for three-course menu",
        "Dinner Details": "Dinner: $33 for five-course menu",
        "marker-size": "small",
        "marker-symbol": "restaurant",
        "geo_accuracy": "house",
        "geo_longitude": "-71.1770048571429",
        "geo_latitude": "42.3197081428571"
      },
      "type": "Feature",
      "geometry": {
        "type": "Point",
        "coordinates": [
          -71.1770048571429,
          42.3197081428571
        ]
      }
    },
    {
      "id": "SMITH & WOLLENSKY STEAKHOUSE",
      "properties": {
        "name": "SMITH & WOLLENSKY STEAKHOUSE",
        "address": "294 Congress Street, Boston, MA, 02110",
        "phone": "617-778-2200",
        "region": "DOWNTOWN",
        "mbta access": "yes",
        "Lunch Detail": "Lunch: $25 for three-course menu",
        "Dinner Details": "Dinner: $38 for three-course menu",
        "marker-size": "small",
        "marker-symbol": "restaurant",
        "geo_accuracy": "house",
        "geo_longitude": "-71.052399479097",
        "geo_latitude": "42.3526503229933"
      },
      "type": "Feature",
      "geometry": {
        "type": "Point",
        "coordinates": [
          -71.052399479097,
          42.3526503229933
        ]
      }
    },
    {
      "id": "SMITH & WOLLENSKY AT THE CASTLE STEAKHOUSE",
      "properties": {
        "name": "SMITH & WOLLENSKY AT THE CASTLE STEAKHOUSE",
        "address": "101 Arlington Street, Boston, MA, 02116",
        "phone": "617-423-1112",
        "region": "BACK BAY",
        "mbta access": "yes",
        "Lunch Detail": "",
        "Dinner Details": "Dinner: $38 for three-course menu",
        "marker-size": "small",
        "marker-symbol": "restaurant",
        "geo_accuracy": "secondary",
        "geo_longitude": "-71.0702917",
        "geo_latitude": "42.3510683"
      },
      "type": "Feature",
      "geometry": {
        "type": "Point",
        "coordinates": [
          -71.0702917,
          42.3510683
        ]
      }
    },
    {
      "id": "SOL AZTECA RESTAURANT MEXICAN / SOUTHWESTERN",
      "properties": {
        "name": "SOL AZTECA RESTAURANT MEXICAN / SOUTHWESTERN",
        "address": "914A Beacon Street, Boston, MA, 02215",
        "phone": "617-262-0909",
        "region": "BACK BAY",
        "mbta access": "yes",
        "Lunch Detail": "",
        "Dinner Details": "Dinner: $28 for three-course meal and a beverage",
        "marker-size": "small",
        "marker-symbol": "restaurant",
        "geo_accuracy": "primary",
        "geo_longitude": "-71.1033469",
        "geo_latitude": "42.3471638"
      },
      "type": "Feature",
      "geometry": {
        "type": "Point",
        "coordinates": [
          -71.1033469,
          42.3471638
        ]
      }
    },
    {
      "id": "SOLEA SPANISH",
      "properties": {
        "name": "SOLEA SPANISH",
        "address": "388 Moody Street, Waltham, MA, 02453",
        "phone": "781-894-1805",
        "region": "WALTHAM",
        "mbta access": "yes",
        "Lunch Detail": "",
        "Dinner Details": "Dinner: $33 for three-course menu",
        "marker-size": "small",
        "marker-symbol": "restaurant",
        "geo_accuracy": "house",
        "geo_longitude": "-71.23706275",
        "geo_latitude": "42.3697185"
      },
      "type": "Feature",
      "geometry": {
        "type": "Point",
        "coordinates": [
          -71.23706275,
          42.3697185
        ]
      }
    },
    {
      "id": "SOPHIA'S GROTTO MEDITERRANEAN",
      "properties": {
        "name": "SOPHIA'S GROTTO MEDITERRANEAN",
        "address": "22R Birch Street, Roslindale, MA, 02131",
        "phone": "617-323-4595",
        "region": "ROSLINDALE",
        "mbta access": "no",
        "Lunch Detail": "",
        "Dinner Details": "Dinner: $28 for two-course menu",
        "marker-size": "small",
        "marker-symbol": "restaurant",
        "geo_accuracy": "residential",
        "geo_longitude": "-71.132868",
        "geo_latitude": "42.2844"
      },
      "type": "Feature",
      "geometry": {
        "type": "Point",
        "coordinates": [
          -71.132868,
          42.2844
        ]
      }
    },
    {
      "id": "SORELLINA ITALIAN",
      "properties": {
        "name": "SORELLINA ITALIAN",
        "address": "1 Huntington Avenue, Boston, MA, 02116",
        "phone": "617-412-4600",
        "region": "BACK BAY",
        "mbta access": "yes",
        "Lunch Detail": "",
        "Dinner Details": "Dinner: $38 for three-course menu",
        "marker-size": "small",
        "marker-symbol": "restaurant",
        "geo_accuracy": "house",
        "geo_longitude": "-71.077132",
        "geo_latitude": "42.349293"
      },
      "type": "Feature",
      "geometry": {
        "type": "Point",
        "coordinates": [
          -71.077132,
          42.349293
        ]
      }
    },
    {
      "id": "STREGA ITALIAN",
      "properties": {
        "name": "STREGA ITALIAN",
        "address": "379 Hanover Street, Boston, MA, 02113",
        "phone": "617-523-8481",
        "region": "NORTH END",
        "mbta access": "yes",
        "Lunch Detail": "Lunch: $20 for three-course menu",
        "Dinner Details": "Dinner: $38 for three-course menu",
        "marker-size": "small",
        "marker-symbol": "restaurant",
        "geo_accuracy": "house",
        "geo_longitude": "-71.0531822222222",
        "geo_latitude": "42.3649386666667"
      },
      "type": "Feature",
      "geometry": {
        "type": "Point",
        "coordinates": [
          -71.0531822222222,
          42.3649386666667
        ]
      }
    },
    {
      "id": "STREGA WATERFRONT ITALIAN",
      "properties": {
        "name": "STREGA WATERFRONT ITALIAN",
        "address": "One Marina Park Drive, Boston, MA, 02210",
        "phone": "617-345-3992",
        "region": "WATERFRONT",
        "mbta access": "yes",
        "Lunch Detail": "Lunch: $20 for three-course menu",
        "Dinner Details": "Dinner: $38 for three-course menu",
        "marker-size": "small",
        "marker-symbol": "restaurant",
        "geo_accuracy": "yes",
        "geo_longitude": "-71.0453602841517",
        "geo_latitude": "42.35324825"
      },
      "type": "Feature",
      "geometry": {
        "type": "Point",
        "coordinates": [
          -71.0453602841517,
          42.35324825
        ]
      }
    },
    {
      "id": "SUMMER SHACK SEAFOOD",
      "properties": {
        "name": "SUMMER SHACK SEAFOOD",
        "address": "50 Dalton Street, Boston, MA, 02115",
        "phone": "617-867-9955",
        "region": "BACK BAY",
        "mbta access": "yes",
        "Lunch Detail": "Lunch: $20 for three-course menu",
        "Dinner Details": "Dinner: $33 for three-course menu",
        "marker-size": "small",
        "marker-symbol": "restaurant",
        "geo_accuracy": "house",
        "geo_longitude": "-71.085307",
        "geo_latitude": "42.347031"
      },
      "type": "Feature",
      "geometry": {
        "type": "Point",
        "coordinates": [
          -71.085307,
          42.347031
        ]
      }
    },
    {
      "id": "T. W. FOOD FRENCH",
      "properties": {
        "name": "T. W. FOOD FRENCH",
        "address": "377 Walden Street, Cambridge, MA, 02138",
        "phone": "617-864-4745",
        "region": "CAMBRIDGE",
        "mbta access": "yes",
        "Lunch Detail": "",
        "Dinner Details": "Dinner: $38 for three-course menu",
        "marker-size": "small",
        "marker-symbol": "restaurant",
        "geo_accuracy": "house",
        "geo_longitude": "-71.13437375",
        "geo_latitude": "42.383709"
      },
      "type": "Feature",
      "geometry": {
        "type": "Point",
        "coordinates": [
          -71.13437375,
          42.383709
        ]
      }
    },
    {
      "id": "TAMO CONTEMPORARY AMERICAN",
      "properties": {
        "name": "TAMO CONTEMPORARY AMERICAN",
        "address": "1 Seaport Lane Boston, Boston, MA, 02210",
        "phone": "617-385-4315",
        "region": "SEAPORT",
        "mbta access": "no",
        "Lunch Detail": "Lunch: $20 for two-course menu",
        "Dinner Details": "Dinner: $33 for three-course menu",
        "marker-size": "small",
        "marker-symbol": "restaurant",
        "geo_accuracy": "residential",
        "geo_longitude": "-71.0415235",
        "geo_latitude": "42.3485826"
      },
      "type": "Feature",
      "geometry": {
        "type": "Point",
        "coordinates": [
          -71.0415235,
          42.3485826
        ]
      }
    },
    {
      "id": "TANGIERINO MEDITERRANEAN",
      "properties": {
        "name": "TANGIERINO MEDITERRANEAN",
        "address": "83 Main Street, Charlestown, MA, 02129",
        "phone": "617-242-6009",
        "region": "CHARLESTOWN",
        "mbta access": "yes",
        "Lunch Detail": "",
        "Dinner Details": "Dinner: $38 for three-course menu",
        "marker-size": "small",
        "marker-symbol": "restaurant",
        "geo_accuracy": "house",
        "geo_longitude": "-71.0633568367347",
        "geo_latitude": "42.374424"
      },
      "type": "Feature",
      "geometry": {
        "type": "Point",
        "coordinates": [
          -71.0633568367347,
          42.374424
        ]
      }
    },
    {
      "id": "TAPEO TAPAS / SMALL PLATES",
      "properties": {
        "name": "TAPEO TAPAS / SMALL PLATES",
        "address": "266 Newbury Street, Boston, MA, 02116",
        "phone": "617-267-4799",
        "region": "BACK BAY",
        "mbta access": "yes",
        "Lunch Detail": "",
        "Dinner Details": "Dinner: $33 for three-course menu",
        "marker-size": "small",
        "marker-symbol": "restaurant",
        "geo_accuracy": "house",
        "geo_longitude": "-71.0829575536268",
        "geo_latitude": "42.349383905088"
      },
      "type": "Feature",
      "geometry": {
        "type": "Point",
        "coordinates": [
          -71.0829575536268,
          42.349383905088
        ]
      }
    },
    {
      "id": "TARANTA ITALIAN",
      "properties": {
        "name": "TARANTA ITALIAN",
        "address": "210 Hanover Street, Boston, MA, 02113",
        "phone": "617-720-0052",
        "region": "NORTH END",
        "mbta access": "yes",
        "Lunch Detail": "",
        "Dinner Details": "Dinner: $38 for three-course menu",
        "marker-size": "small",
        "marker-symbol": "restaurant",
        "geo_accuracy": "house",
        "geo_longitude": "-71.055567",
        "geo_latitude": "42.3628868571429"
      },
      "type": "Feature",
      "geometry": {
        "type": "Point",
        "coordinates": [
          -71.055567,
          42.3628868571429
        ]
      }
    },
    {
      "id": "TERRAMIA RISTORANTE ITALIAN",
      "properties": {
        "name": "TERRAMIA RISTORANTE ITALIAN",
        "address": "98 Salem Street, Boston, MA, 02113",
        "phone": "617-523-3112",
        "region": "NORTH END",
        "mbta access": "yes",
        "Lunch Detail": "",
        "Dinner Details": "Dinner: $33 for three-course menu",
        "marker-size": "small",
        "marker-symbol": "restaurant",
        "geo_accuracy": "house",
        "geo_longitude": "-71.055665",
        "geo_latitude": "42.364105"
      },
      "type": "Feature",
      "geometry": {
        "type": "Point",
        "coordinates": [
          -71.055665,
          42.364105
        ]
      }
    },
    {
      "id": "TOP OF THE HUB AMERICAN",
      "properties": {
        "name": "TOP OF THE HUB AMERICAN",
        "address": "800 Boylston Street, Boston, MA, 02199",
        "phone": "617-536-1775",
        "region": "BACK BAY",
        "mbta access": "yes",
        "Lunch Detail": "Lunch: $25 for three-course menu",
        "Dinner Details": "Dinner: $38 for three-course menu",
        "marker-size": "small",
        "marker-symbol": "restaurant",
        "geo_accuracy": "secondary",
        "geo_longitude": "-71.0774775",
        "geo_latitude": "42.3500548"
      },
      "type": "Feature",
      "geometry": {
        "type": "Point",
        "coordinates": [
          -71.0774775,
          42.3500548
        ]
      }
    },
    {
      "id": "TOSCANO ITALIAN",
      "properties": {
        "name": "TOSCANO ITALIAN",
        "address": "47 Charles Street, Boston, MA, 02114",
        "phone": "617-723-4090",
        "region": "BEACON HILL",
        "mbta access": "yes",
        "Lunch Detail": "Lunch: $20 for three-course menu",
        "Dinner Details": "Dinner: $33 for three-course menu",
        "marker-size": "small",
        "marker-symbol": "restaurant",
        "geo_accuracy": "house",
        "geo_longitude": "-71.069996",
        "geo_latitude": "42.3575"
      },
      "type": "Feature",
      "geometry": {
        "type": "Point",
        "coordinates": [
          -71.069996,
          42.3575
        ]
      }
    },
    {
      "id": "TOSCANO HARVARD SQUARE ITALIAN",
      "properties": {
        "name": "TOSCANO HARVARD SQUARE ITALIAN",
        "address": "52 Brattle Street, Cambridge, MA, 02138",
        "phone": "",
        "region": "CAMBRIDGE",
        "mbta access": "yes",
        "Lunch Detail": "Lunch: $20 for three-course menu",
        "Dinner Details": "Dinner: $33 for three-course menu",
        "marker-size": "small",
        "marker-symbol": "restaurant",
        "geo_accuracy": "house",
        "geo_longitude": "-71.121901",
        "geo_latitude": "42.374277"
      },
      "type": "Feature",
      "geometry": {
        "type": "Point",
        "coordinates": [
          -71.121901,
          42.374277
        ]
      }
    },
    {
      "id": "TOWNE STOVE & SPIRITS SEAFOOD",
      "properties": {
        "name": "TOWNE STOVE & SPIRITS SEAFOOD",
        "address": "900 Boylston Street, Boston, MA, 02115",
        "phone": "617-247-0400",
        "region": "BACK BAY",
        "mbta access": "yes",
        "Lunch Detail": "",
        "Dinner Details": "Dinner: $38 for three-course menu",
        "marker-size": "small",
        "marker-symbol": "restaurant",
        "geo_accuracy": "trunk",
        "geo_longitude": "-71.091336",
        "geo_latitude": "42.3465198"
      },
      "type": "Feature",
      "geometry": {
        "type": "Point",
        "coordinates": [
          -71.091336,
          42.3465198
        ]
      }
    },
    {
      "id": "TREMONT 647 AMERICAN",
      "properties": {
        "name": "TREMONT 647 AMERICAN",
        "address": "647 Tremont Street, Boston, MA, 02118",
        "phone": "617-266-4600",
        "region": "SOUTH END",
        "mbta access": "yes",
        "Lunch Detail": "Lunch: $15 for three-course menu",
        "Dinner Details": "Dinner: $33 for three-course menu",
        "marker-size": "small",
        "marker-symbol": "restaurant",
        "geo_accuracy": "house",
        "geo_longitude": "-71.075281",
        "geo_latitude": "42.34213"
      },
      "type": "Feature",
      "geometry": {
        "type": "Point",
        "coordinates": [
          -71.075281,
          42.34213
        ]
      }
    },
    {
      "id": "TRESCA ITALIAN",
      "properties": {
        "name": "TRESCA ITALIAN",
        "address": "233 Hanover Street, Boston, MA, 02113",
        "phone": "617-742-8240",
        "region": "NORTH END",
        "mbta access": "yes",
        "Lunch Detail": "Lunch: $25 for two-course menu",
        "Dinner Details": "Dinner: $38 for three-course menu",
        "marker-size": "small",
        "marker-symbol": "restaurant",
        "geo_accuracy": "house",
        "geo_longitude": "-71.055138",
        "geo_latitude": "42.3630153333333"
      },
      "type": "Feature",
      "geometry": {
        "type": "Point",
        "coordinates": [
          -71.055138,
          42.3630153333333
        ]
      }
    },
    {
      "id": "TRYST AMERICAN",
      "properties": {
        "name": "TRYST AMERICAN",
        "address": "689 Massachusetts Avenue, Arlington, MA, 02476",
        "phone": "781-641-2227",
        "region": "ARLINGTON",
        "mbta access": "no",
        "Lunch Detail": "Lunch: $15 for two-course brunch menu",
        "Dinner Details": "Dinner: $33 for three-course menu",
        "marker-size": "small",
        "marker-symbol": "restaurant",
        "geo_accuracy": "house",
        "geo_longitude": "-71.2072462857143",
        "geo_latitude": "42.4297951428571"
      },
      "type": "Feature",
      "geometry": {
        "type": "Point",
        "coordinates": [
          -71.2072462857143,
          42.4297951428571
        ]
      }
    },
    {
      "id": "TURNER'S SEAFOOD SEAFOOD",
      "properties": {
        "name": "TURNER'S SEAFOOD SEAFOOD",
        "address": "506 Main Street, Melrose, MA, 02176",
        "phone": "781-662-0700",
        "region": "MELROSE",
        "mbta access": "yes",
        "Lunch Detail": "Lunch: $15 for three-course menu",
        "Dinner Details": "Dinner: $33 for three-course menu",
        "marker-size": "small",
        "marker-symbol": "restaurant",
        "geo_accuracy": "restaurant",
        "geo_longitude": "-71.0652779",
        "geo_latitude": "42.4554562"
      },
      "type": "Feature",
      "geometry": {
        "type": "Point",
        "coordinates": [
          -71.0652779,
          42.4554562
        ]
      }
    },
    {
      "id": "UMBRIA PRIME STEAKHOUSE",
      "properties": {
        "name": "UMBRIA PRIME STEAKHOUSE",
        "address": "295 Franklin Street, Boston, MA, 02110",
        "phone": "617-338-1000",
        "region": "DOWNTOWN",
        "mbta access": "yes",
        "Lunch Detail": "Lunch: $25 for three-course menu",
        "Dinner Details": "Dinner: $38 for three-course menu",
        "marker-size": "small",
        "marker-symbol": "restaurant",
        "geo_accuracy": "house",
        "geo_longitude": "-71.052633",
        "geo_latitude": "42.357195"
      },
      "type": "Feature",
      "geometry": {
        "type": "Point",
        "coordinates": [
          -71.052633,
          42.357195
        ]
      }
    },
    {
      "id": "UNION BAR AND GRILLE AMERICAN",
      "properties": {
        "name": "UNION BAR AND GRILLE AMERICAN",
        "address": "1357 Washington Street, Boston, MA, 02118",
        "phone": "617-423-0555",
        "region": "SOUTH END",
        "mbta access": "yes",
        "Lunch Detail": "",
        "Dinner Details": "Dinner: $33 for three-course menu",
        "marker-size": "small",
        "marker-symbol": "restaurant",
        "geo_accuracy": "house",
        "geo_longitude": "-71.06930395",
        "geo_latitude": "42.3415655"
      },
      "type": "Feature",
      "geometry": {
        "type": "Point",
        "coordinates": [
          -71.06930395,
          42.3415655
        ]
      }
    },
    {
      "id": "UNION OYSTER HOUSE SEAFOOD",
      "properties": {
        "name": "UNION OYSTER HOUSE SEAFOOD",
        "address": "41 Union Street, Boston, MA, 02108",
        "phone": "617-227-2750",
        "region": "DOWNTOWN",
        "mbta access": "yes",
        "Lunch Detail": "Lunch: $25 for three-course menu",
        "Dinner Details": "Dinner: $38 for three-course menu",
        "marker-size": "small",
        "marker-symbol": "restaurant",
        "geo_accuracy": "house",
        "geo_longitude": "-71.0569317619048",
        "geo_latitude": "42.3612736666667"
      },
      "type": "Feature",
      "geometry": {
        "type": "Point",
        "coordinates": [
          -71.0569317619048,
          42.3612736666667
        ]
      }
    },
    {
      "id": "VENEZIA ITALIAN",
      "properties": {
        "name": "VENEZIA ITALIAN",
        "address": "20 Ericsson Street, Boston, MA, 02122",
        "phone": "617-436-3120",
        "region": "DORCHESTER",
        "mbta access": "yes",
        "Lunch Detail": "Lunch: $20",
        "Dinner Details": "Dinner: $38",
        "marker-size": "small",
        "marker-symbol": "restaurant",
        "geo_accuracy": "house",
        "geo_longitude": "-71.0407475",
        "geo_latitude": "42.2916935"
      },
      "type": "Feature",
      "geometry": {
        "type": "Point",
        "coordinates": [
          -71.0407475,
          42.2916935
        ]
      }
    },
    {
      "id": "ZEBRA'S BISTRO & WINE BAR AMERICAN",
      "properties": {
        "name": "ZEBRA'S BISTRO & WINE BAR AMERICAN",
        "address": "21 North Street, Medfield, MA, 02052",
        "phone": "508-359-4100",
        "region": "MEDFIELD",
        "mbta access": "no",
        "Lunch Detail": "",
        "Dinner Details": "Dinner: $38 for three-course menu; $33 for two-course menu",
        "marker-size": "small",
        "marker-symbol": "restaurant",
        "geo_accuracy": "house",
        "geo_longitude": "-71.30579",
        "geo_latitude": "42.186998"
      },
      "type": "Feature",
      "geometry": {
        "type": "Point",
        "coordinates": [
          -71.30579,
          42.186998
        ]
      }
    },
    {
      "id": "ZEPHYR ON THE CHARLES AMERICAN",
      "properties": {
        "name": "ZEPHYR ON THE CHARLES AMERICAN",
        "address": "575 Memorial Drive, Cambridge, MA, 02139",
        "phone": "617-441-6510",
        "region": "CAMBRIDGE",
        "mbta access": "no",
        "Lunch Detail": "Lunch: $20 for two-course menu",
        "Dinner Details": "Dinner: $33 for two-course menu",
        "marker-size": "small",
        "marker-symbol": "restaurant",
        "geo_accuracy": "house",
        "geo_longitude": "-71.1049214146276",
        "geo_latitude": "42.3536201040277"
      },
      "type": "Feature",
      "geometry": {
        "type": "Point",
        "coordinates": [
          -71.1049214146276,
          42.3536201040277
        ]
      }
    }
  ],
  "type": "FeatureCollection"
}
